[
  {
    "name": "渋谷スクランブル交差点",
    "points": [[{"lat":35.65948834910298, "lng":139.70055060342912}]],
    "importance": 90,
    "description": "世界的に有名な交差点"
  },
  {
    "name": "青戸八丁目",
    "points": [[{"lat":35.75736234595877, "lng":139.85455842801395}]],
    "importance": 70,
    "description": "青戸の中心的な交差点"
  },
  {
    "name": "青山一丁目",
    "points": [[{"lat":35.672789922500044, "lng":139.7240304753634}]],
    "importance": 70,
    "description": "青山の中心的な交差点"
  },
  {
    "name": "赤坂見附",
    "points": [[{"lat":35.67821530725095, "lng":139.73639303867364}]],
    "importance": 70,
    "description": ""
  },
  {
    "name": "吾妻橋交番前",
    "points": [[{"lat":35.70859105265741, "lng":139.80433234931368}]],
    "importance": 70,
    "description": ""
  },
  {
    "name": "赤羽",
    "points": [[{"lat":35.78375210706283, "lng":139.72057689605435}]],
    "importance": 70,
    "description": ""
  },
  {
    "name": "赤羽橋",
    "points": [[{"lat":35.654942861943574, "lng":139.74523910181804}]],
    "importance": 70,
    "description": ""
  },
  {
    "name": "浅草橋",
    "points": [[{"lat":35.69494597282428, "lng":139.78448332432373}]],
    "importance": 70,
    "description": ""
  },
  {
    "name": "浅草橋一丁目",
    "points": [[{"lat":35.69639448509337, "lng":139.7856896045368}]],
    "importance": 70,
    "description": ""
  },
  {
    "name": "浅草橋南",
    "points": [[{"lat":35.69548049613873, "lng":139.7851493885175}]],
    "importance": 70,
    "description": ""
  },
  {
    "name": "飛鳥山",
    "points": [[{"lat":35.7508526220623, "lng":139.73741664892768}]],
    "importance": 80,
    "description": ""
  },
  {
    "name": "油面",
    "points": [[{"lat":35.63052178959005, "lng":139.70122184343282}]],
    "importance": 70,
    "description": ""
  },
  
  {
    "name": "天沼陸橋",
    "points": [[{"lat":35.70360536720458, "lng":139.62673780768577}]],
    "importance": 70,
    "description": ""
  },
  {
    "name": "新井",
    "points": [[{"lat":35.709970295741485, "lng":139.66495469263486}]],
    "importance": 70,
    "description": ""
  },
  {
    "name": "新井五差路",
    "points": [[{"lat":35.71427286223964, "lng":139.6662143965624}]],
    "importance": 70,
    "description": ""
  },
  {
    "name": "荒川三丁目",
    "points": [[{"lat":35.735542601410216, "lng":139.78187971147796}]],
    "importance": 70,
    "description": ""
  },
  {
    "name": "荒川七中入口",
    "points": [[{"lat":35.74518028576767, "lng":139.75829383201034}]],
    "importance": 70,
    "description": ""
  },
  {
    "name": "荒木田",
    "points": [[{"lat":35.74966790994494, "lng":139.7851179107337}]],
    "importance": 70,
    "description": ""
  },
  {
    "name": "淡路町",
    "points": [[{"lat":35.69538185576549, "lng":139.76747120883763}]],
    "importance": 70,
    "description": ""
  },
  {
    "name": "飯倉",
    "points": [[{"lat":35.659708935296415, "lng":139.74293536877244}]],
    "importance": 70,
    "description": ""
  },
  {
    "name": "飯倉片町",
    "points": [[{"lat":35.661208225272546, "lng":139.73790323907798}]],
    "importance": 70,
    "description": ""
  },
  {
    "name": "飯田橋",
    "points": [[{"lat":35.70264318412675, "lng":139.74469198961415}]],
    "importance": 70,
    "description": ""
  },
  {
    "name": "飯田橋一丁目",
    "points": [[{"lat":35.69810707042653, "lng":139.75016183414346}]],
    "importance": 70,
    "description": ""
  },
  {
    "name": "飯田橋二丁目",
    "points": [[{"lat":35.70006190794529, "lng":139.74826530918784}]],
    "importance": 70,
    "description": ""
  },
  {
    "name": "井草三丁目",
    "points": [[{"lat":35.72782789185954, "lng":139.61448119306436}]],
    "importance": 70,
    "description": ""
  },
  {
    "name": "井草八幡前",
    "points": [[{"lat":35.717040716175134, "lng":139.596587981215}]],
    "importance": 70,
    "description": ""
  },
  {
    "name": "井草四丁目",
    "points": [[{"lat":35.728123418109384, "lng":139.60866624128298}]],
    "importance": 70,
    "description": ""
  },
  {
    "name": "池之端一丁目",
    "points": [[{"lat":35.709311944023526, "lng":139.76976464336275}]],
    "importance": 70,
    "description": ""
  },
  {
    "name": "石川台",
    "points": [[{"lat":35.59688789463594, "lng":139.68295265767628}]],
    "importance": 70,
    "description": ""
  },
  {
    "name": "石切橋",
    "points": [[{"lat":35.70894733501905, "lng":139.73599709474922}]],
    "importance": 70,
    "description": ""
  },
  {
    "name": "石原一丁目",
    "points": [[{"lat":35.700236454924976, "lng":139.79714543498352}]],
    "importance": 70,
    "description": ""
  },
  {
    "name": "石原三丁目",
    "points": [[{"lat":35.70065101371048, "lng":139.80497903527717}]],
    "importance": 70,
    "description": ""
  },
  {
    "name": "板橋中央陸橋",
    "points": [[{"lat":35.7551523498672, "lng":139.68808546721607}]],
    "importance": 70,
    "description": ""
  },
  {
    "name": "板橋電話局前",
    "points": [[{"lat":35.7483509972429, "lng":139.70831240615468}]],
    "importance": 70,
    "description": ""
  },
  {
    "name": "市ヶ谷駅",
    "points": [[{"lat":35.6911360539015, "lng":139.7359730906834}]],
    "importance": 70,
    "description": ""
  },
  {
    "name": "市谷小学校前",
    "points": [[{"lat":35.6992618362493, "lng":139.72923702692182}]],
    "importance": 70,
    "description": ""
  },
  {
    "name": "市谷八幡町",
    "points": [[{"lat":35.691706862986, "lng":139.73398051009528}]],
    "importance": 70,
    "description": ""
  },
  {
    "name": "市谷見附",
    "points": [[{"lat":35.692213287443074, "lng":139.73522339263408}]],
    "importance": 70,
    "description": ""
  },
  {
    "name": "市谷柳町",
    "points": [[{"lat":35.69940325214692, "lng":139.7261371586044}]],
    "importance": 70,
    "description": ""
  },
  {
    "name": "一之江一丁目",
    "points": [[{"lat":35.70252958891252, "lng":139.881509785909}]],
    "importance": 70,
    "description": ""
  },
  {
    "name": "一之江四丁目北",
    "points": [[{"lat":35.69280147884398, "lng":139.8826166582039}]],
    "importance": 70,
    "description": ""
  },
  {
    "name": "（小岩の）一里塚",
    "points": [[{"lat":35.734246500537644, "lng":139.8934110102748}]],
    "importance": 70,
    "description": ""
  },
  {
    "name": "五日市街道入口",
    "points": [[{"lat":35.69790731740576, "lng":139.649467347332}]],
    "importance": 70,
    "description": ""
  },
  {
    "name": "壱岐坂上",
    "points": [[{"lat":35.70483049574983, "lng":139.76122695952034}]],
    "importance": 70,
    "description": ""
  },
  {
    "name": "壱岐坂下",
    "points": [[{"lat":35.70551202823809, "lng":139.75450146823695}]],
    "importance": 70,
    "description": ""
  },
  {
    "name": "稲荷町",
    "points": [[{"lat":35.71126195162272, "lng":139.78302815559647}]],
    "importance": 70,
    "description": ""
  },
  {
    "name": "井ノ頭通り入口",
    "points": [[{"lat":35.660433141489825, "lng":139.7008218128826}]],
    "importance": 70,
    "description": ""
  },
  {
    "name": "今川橋",
    "points": [[{"lat":35.690914032869784, "lng":139.7720316476172}]],
    "importance": 70,
    "description": ""
  },
  {
    "name": "入船一丁目",
    "points": [[{"lat":35.67298806541872, "lng":139.77617627242813}]],
    "importance": 70,
    "description": ""
  },
  {
    "name": "入船橋",
    "points": [[{"lat":35.670241808915314, "lng":139.77499485458523}]],
    "importance": 70,
    "description": ""
  },
  {
    "name": "入谷",
    "points": [[{"lat":35.719879827753445, "lng":139.78387747677732}]],
    "importance": 70,
    "description": ""
  },
  {
    "name": "祝田橋",
    "points": [[{"lat":35.6767153327416, "lng":139.7558844125356}]],
    "importance": 70,
    "description": ""
  },
  {
    "name": "岩本町",
    "points": [[{"lat":35.69557183072728, "lng":139.775954484977}]],
    "importance": 70,
    "description": ""
  },
  {
    "name": "上野駅",
    "points": [[{"lat":35.71219407163142, "lng":139.77807235588375}]],
    "importance": 70,
    "description": ""
  },
  {
    "name": "上野警察署前",
    "points": [[{"lat":35.71197450999524, "lng":139.7790696811997}]],
    "importance": 70,
    "description": ""
  },
  {
    "name": "上野広小路",
    "points": [[{"lat":35.70801274088204, "lng":139.77307650547536}]],
    "importance": 70,
    "description": ""
  },
  {
    "name": "上野四丁目",
    "points": [[{"lat":35.709776031882846, "lng":139.77347214088613}]],
    "importance": 70,
    "description": ""
  },
  {
    "name": "鶯谷駅前",
    "points": [[{"lat":35.723137235995154, "lng":139.77821897027047}]],
    "importance": 70,
    "description": ""
  },
  {
    "name": "牛込北町",
    "points": [[{"lat":35.6999038048736, "lng":139.73316159396808}]],
    "importance": 70,
    "description": ""
  },
  {
    "name": "内幸町",
    "points": [[{"lat":35.67072257850666, "lng":139.75612199402298}]],
    "importance": 70,
    "description": ""
  },
  {
    "name": "馬道",
    "points": [[{"lat":35.7158285911108, "lng":139.79864203053057}]],
    "importance": 70,
    "description": ""
  },
  {
    "name": "廐橋",
    "points": [[{"lat":35.705214813838424, "lng":139.79332918629538}]],
    "importance": 70,
    "description": ""
  },
  {
    "name": "梅里二丁目",
    "points": [[{"lat":35.697756298109674, "lng":139.6438808735073}]],
    "importance": 70,
    "description": ""
  },
  {
    "name": "梅島陸橋",
    "points": [[{"lat":35.77869842780074, "lng":139.80313069016645}]],
    "importance": 70,
    "description": ""
  },
  {
    "name": "赤羽",
    "points": [[{"lat":35.78375210706283, "lng":139.72057689605435}]],
    "importance": 70,
    "description": ""
  },
  {
    "name": "梅田",
    "points": [[{"lat":35.76365597302118, "lng":139.80379046716214}]],
    "importance": 70,
    "description": ""
  },
  {
    "name": "梅屋敷駅入口",
    "points": [[{"lat":35.56697090934005, "lng":139.7289196667114}]],
    "importance": 70,
    "description": ""
  },
  {
    "name": "永代二丁目",
    "points": [[{"lat":35.67383110413243, "lng":139.79176605565422}]],
    "importance": 70,
    "description": ""
  },
  {
    "name": "永代橋西",
    "points": [[{"lat":35.67665759249758, "lng":139.7860242857389}]],
    "importance": 70,
    "description": ""
  },
  {
    "name": "江戸川",
    "points": [[{"lat":35.73576875810864, "lng":139.8947874458562}]],
    "importance": 70,
    "description": ""
  },
  {
    "name": "江戸川橋",
    "points": [[{"lat":35.71016473607626, "lng":139.73157661292748}]],
    "importance": 70,
    "description": ""
  },
  {
    "name": "江戸橋一丁目",
    "points": [[{"lat":35.681704545299496, "lng":139.77574452241961}]],
    "importance": 70,
    "description": ""
  },
  {
    "name": "荏原警察署前",
    "points": [[{"lat":35.61232359339835, "lng":139.7067456916531}]],
    "importance": 70,
    "description": ""
  },
  {
    "name": "荏原二丁目",
    "points": [[{"lat":35.61655716824806, "lng":139.7107669951934}]],
    "importance": 70,
    "description": ""
  },
  {
    "name": "恵比寿南",
    "points": [[{"lat":35.646232061437686, "lng":139.70749077540674}]],
    "importance": 70,
    "description": ""
  },
  {
    "name": "扇橋二丁目",
    "points": [[{"lat":35.683056868442684, "lng":139.81609967757896}]],
    "importance": 70,
    "description": ""
  },
  {
    "name": "王子五丁目",
    "points": [[{"lat":35.7658432942213, "lng":139.7355500019673}]],
    "importance": 70,
    "description": ""
  },
  {
    "name": "王子三丁目",
    "points": [[{"lat":35.759061538534944, "lng":139.73755492443948}]],
    "importance": 70,
    "description": ""
  },
  {
    "name": "大岡山駅入口",
    "points": [[{"lat":35.599843491659314, "lng":139.68832514959465}]],
    "importance": 70,
    "description": ""
  },
  {
    "name": "大久保通り入口",
    "points": [[{"lat":35.70135946122928, "lng":139.65478530608996}]],
    "importance": 70,
    "description": ""
  },
  {
    "name": "大久保二丁目",
    "points": [[{"lat":35.70089463081617, "lng":139.70805712509474}]],
    "importance": 70,
    "description": ""
  },
  {
    "name": "大崎広小路",
    "points": [[{"lat":35.62328172471062, "lng":139.72222687464074}]],
    "importance": 70,
    "description": ""
  },
  {
    "name": "大崎郵便局前",
    "points": [[{"lat":35.62512759225818, "lng":139.71835281312343}]],
    "importance": 70,
    "description": ""
  },
  {
    "name": "大島六丁目",
    "points": [[{"lat":35.689876312521825, "lng":139.83578554613274}]],
    "importance": 70,
    "description": ""
  },
  {
    "name": "大関横丁",
    "points": [[{"lat":35.73004241516625, "lng":139.791794826691}]],
    "importance": 70,
    "description": ""
  },
  {
    "name": "大田区総合体育館",
    "points": [[{"lat":35.56499569205459, "lng":139.72749493222744}]],
    "importance": 70,
    "description": ""
  },
  {
    "name": "大田区役所入口",
    "points": [[{"lat":35.55920240993775, "lng":139.71661342438492}]],
    "importance": 70,
    "description": ""
  },
  {
    "name": "大塚警察署前",
    "points": [[{"lat":35.71708395018874, "lng":139.72849525967484}]],
    "importance": 70,
    "description": ""
  },
  {
    "name": "大塚五丁目",
    "points": [[{"lat":35.72562365487077, "lng":139.73019733518757}]],
    "importance": 70,
    "description": ""
  },
  {
    "name": "大塚三丁目",
    "points": [[{"lat":35.721508672528465, "lng":139.73178172688046}]],
    "importance": 70,
    "description": ""
  },
  {
    "name": "大塚四丁目",
    "points": [[{"lat":35.72172270165612, "lng":139.7340374167128}]],
    "importance": 70,
    "description": ""
  },
  {
    "name": "大手町",
    "points": [[{"lat":35.68530032459467, "lng":139.76315091935092}]],
    "importance": 70,
    "description": ""
  },
  {
    "name": "大手門",
    "points": [[{"lat":35.685716412507766, "lng":139.76123273259284}]],
    "importance": 70,
    "description": ""
  },
  {
    "name": "大鳥居",
    "points": [[{"lat":35.55237103953675, "lng":139.74034861209267}]],
    "importance": 70,
    "description": ""
  },
  {
    "name": "大鳥神社",
    "points": [[{"lat":35.63270885388962, "lng":139.70837890613242}]],
    "importance": 70,
    "description": ""
  },
  {
    "name": "大橋",
    "points": [[{"lat":35.65218514406324, "lng":139.68823630096472}]],
    "importance": 70,
    "description": ""
  },
  {
    "name": "大原",
    "points": [[{"lat":35.67254753657152, "lng":139.66062140222635}]],
    "importance": 70,
    "description": ""
  },
  {
    "name": "大原二丁目",
    "points": [[{"lat":35.66905280970285, "lng":139.66143458061381}]],
    "importance": 70,
    "description": ""
  },
  {
    "name": "大曲",
    "points": [
      [
        {"lat":35.70772547590635, "lng":139.74305494209273}
      ]
    ],
    "importance": 70,
    "description": ""
  },
  {
    "name": "大宮八幡前",
    "points": [
      [
        {"lat":35.681881996071134, "lng":139.6434225771997}
      ]
    ],
    "importance": 70,
    "description": ""
  },
  {
    "name": "大森警察署前",
    "points": [
      [
        {"lat":35.573878522820486, "lng":139.73386243644202}
      ]
    ],
    "importance": 70,
    "description": ""
  },
  {
    "name": "大森東",
    "points": [
      [
        {"lat":35.57763701536009, "lng":139.7351233511691}
      ]
    ],
    "importance": 70,
    "description": ""
  },
  {
    "name": "大森町駅入口",
    "points": [
      [
        {"lat":35.57168175745944, "lng":139.73246830355168}
      ]
    ],
    "importance": 70,
    "description": ""
  },
  {
    "name": "小川町",
    "points": [
      [
        {"lat":35.6945944723002, "lng":139.76532674516395}
      ]
    ],
    "importance": 70,
    "description": ""
  },
  {
    "name": "荻窪駅前入口",
    "points": [
      [
        {"lat":35.70521181703309, "lng":139.6226923067595}
      ]
    ],
    "importance": 70,
    "description": ""
  },
  {
    "name": "荻窪警察署前",
    "points": [
      [
        {"lat":35.70521236154191, "lng":139.6226943184163}
      ]
    ],
    "importance": 70,
    "description": ""
  },
  {
    "name": "尾久駅前",
    "points": [
      [
        {"lat":35.74707650615592, "lng":139.75480611995184}
      ]
    ],
    "importance": 70,
    "description": ""
  },
  {
    "name": "奥戸街道入口",
    "points": [
      [
        {"lat":35.73594161604972, "lng":139.84118553714262}
      ]
    ],
    "importance": 70,
    "description": ""
  },
  {
    "name": "奥戸陸橋下",
    "points": [
      [
        {"lat":35.73431530980926, "lng":139.86639173943072}
      ]
    ],
    "importance": 70,
    "description": ""
  },
  {
    "name": "押上駅前",
    "points": [
      [
        {"lat":35.70905254803279, "lng":139.8136661388766}
      ]
    ],
    "importance": 70,
    "description": ""
  },
  {
    "name": "小滝橋",
    "points": [
      [
        {"lat":35.7096001311523, "lng":139.6939549756467}
      ]
    ],
    "importance": 70,
    "description": ""
  },
  {
    "name": "音無橋",
    "points": [
      [
        {"lat":35.75212129015148, "lng":139.73627464268912}
      ]
    ],
    "importance": 70,
    "description": ""
  },
  {
    "name": "小名木川駅前",
    "points": [
      [
        {"lat":35.68380820334285, "lng":139.82684911393002}
      ]
    ],
    "importance": 70,
    "description": ""
  },
  {
    "name": "御成門",
    "points": [
      [
        {"lat":35.6610086467755, "lng":139.75144240860865}
      ]
    ],
    "importance": 70,
    "description": ""
  },
  {
    "name": "小村井",
    "points": [
      [
        {"lat":35.71128612160445, "lng":139.82896726556956}
      ]
    ],
    "importance": 70,
    "description": ""
  },
  {
    "name": "表参道",
    "points": [
      [
        {"lat":35.66516669178574, "lng":139.7125358767874}
      ]
    ],
    "importance": 70,
    "description": ""
  },
  {
    "name": "尾山台",
    "points": [
      [
        {"lat":35.60381777541196, "lng":139.6520585628534}
      ]
    ],
    "importance": 70,
    "description": ""
  },
  {
    "name": "外苑前",
    "points": [
      [
        {"lat":35.670111189520426, "lng":139.7169561366956}
      ]
    ],
    "importance": 70,
    "description": ""
  },
  {
    "name": "蛎殻町",
    "points": [
      [
        {"lat":35.682477059064624, "lng":139.7816838182703}
      ]
    ],
    "importance": 70,
    "description": ""
  },
  {
    "name": "柿ノ木坂一丁目",
    "points": [
      [
        {"lat":35.62374810798691, "lng":139.67913806703874}
      ]
    ],
    "importance": 70,
    "description": ""
  },
  {
    "name": "柿ノ木坂陸橋",
    "points": [
      [
        {"lat":35.62055374686283, "lng":139.68044703977833}
      ]
    ],
    "importance": 70,
    "description": ""
  },
  {
    "name": "神楽坂上",
    "points": [
      [
        {"lat":35.70223204559691, "lng":139.738190118733}
      ]
    ],
    "importance": 70,
    "description": ""
  },
  {
    "name": "神楽坂下",
    "points": [
      [
        {"lat":35.700439563224734, "lng":139.74270188573308}
      ]
    ],
    "importance": 70,
    "description": ""
  },
  {
    "name": "葛西駅前",
    "points": [
      [
        {"lat":35.66375920453093, "lng":139.87312358240717}
      ]
    ],
    "importance": 70,
    "description": ""
  },
  {
    "name": "葛西工業高校前",
    "points": [
      [
        {"lat":35.68313494246308, "lng":139.88144133504306}
      ]
    ],
    "importance": 70,
    "description": ""
  },
  {
    "name": "葛西橋東詰",
    "points": [
      [
        {"lat":35.67022510075449, "lng":139.85665077034903}
      ]
    ],
    "importance": 70,
    "description": ""
  },
  {
    "name": "鍛冶橋",
    "points": [
      [
        {"lat":35.67723712869678, "lng":139.76704949903498}
      ]
    ],
    "importance": 70,
    "description": ""
  },
  {
    "name": "春日町",
    "points": [
      [
        {"lat":35.70845676144394, "lng":139.75362395932703}
      ]
    ],
    "importance": 70,
    "description": ""
  },
  {
    "name": "春日橋",
    "points": [
      [
        {"lat":35.581382277708094, "lng":139.72174678644538}
      ]
    ],
    "importance": 70,
    "description": ""
  },
  {
    "name": "勝どき駅前",
    "points": [
      [
        {"lat":35.65933524644427, "lng":139.7776906892282}
      ]
    ],
    "importance": 70,
    "description": ""
  },
  {
    "name": "合羽坂下",
    "points": [
      [
        {"lat":35.69219303919498, "lng":139.72548877799352}
      ]
    ],
    "importance": 70,
    "description": ""
  },
  {
    "name": "金井窪",
    "points": [
      [
        {"lat":35.74331625025994, "lng":139.7080778083532}
      ]
    ],
    "importance": 70,
    "description": ""
  },
  {
    "name": "金杉橋南",
    "points": [
      [
        {"lat":35.65280005754335, "lng":139.75412782350088}
      ]
    ],
    "importance": 70,
    "description": ""
  },
  {
    "name": "金町三丁目",
    "points": [
      [
        {"lat":35.76695818202052, "lng":1139.87111080991266}
      ]
    ],
    "importance": 70,
    "description": ""
  },
  {
    "name": "要町一丁目",
    "points": [
      [
        {"lat":35.73314037166974, "lng":139.69939170955956}
      ]
    ],
    "importance": 70,
    "description": ""
  },
  {
    "name": "鎌倉橋",
    "points": [
      [
        {"lat":35.68959160295796, "lng":139.76688106480233}
      ]
    ],
    "importance": 70,
    "description": ""
  },
  {
    "name": "上井草三丁目",
    "points": [
      [
        {"lat":35.7191067345826, "lng":139.60596497218668}
      ]
    ],
    "importance": 70,
    "description": ""
  },
  {
    "name": "上池袋",
    "points": [
      [
        {"lat":35.7386119773546, "lng":139.7223872968392}
      ]
    ],
    "importance": 70,
    "description": ""
  },
  {
    "name": "上池袋二丁目",
    "points": [
      [
        {"lat":35.73617295507352, "lng":139.7196972458998}
      ]
    ],
    "importance": 70,
    "description": ""
  },
  {
    "name": "上馬",
    "points": [
      [
        {"lat":35.63550028459951, "lng":139.6646211750377}
      ]
    ],
    "importance": 70,
    "description": ""
  },
  {
    "name": "上大崎",
    "points": [
      [
        {"lat":35.63478164969147, "lng":139.71957415271794}
      ]
    ],
    "importance": 70,
    "description": ""
  },
  {
    "name": "（上大崎二丁目）",
    "points": [
      [
        {"lat":35.63484348841828, "lng":139.71504957234478}
      ]
    ],
    "importance": 70,
    "description": ""
  },
  {
    "name": "上落合二丁目",
    "points": [
      [
        {"lat":35.710349856593574, "lng":139.68461207063382}
      ]
    ],
    "importance": 70,
    "description": ""
  },
  {
    "name": "上高井戸一丁目",
    "points": [
      [
        {"lat":35.671977387186736, "lng":139.61346956183309}
      ]
    ],
    "importance": 70,
    "description": ""
  },
  {
    "name": "上野毛駅前",
    "points": [
      [
        {"lat":35.611839343761595, "lng":139.63828208976352}
      ]
    ],
    "importance": 70,
    "description": ""
  },
  {
    "name": "上富士前",
    "points": [
      [
        {"lat":35.732309911892315, "lng":139.7493429316408}
      ]
    ],
    "importance": 70,
    "description": ""
  },
  {
    "name": "神谷一丁目",
    "points": [
      [
        {"lat":35.76781081457103, "lng":139.73489526420445}
      ]
    ],
    "importance": 70,
    "description": ""
  },
  {
    "name": "神谷三丁目",
    "points": [
      [
        {"lat":35.77098968156165, "lng":139.73376591696172}
      ]
    ],
    "importance": 70,
    "description": ""
  },
  {
    "name": "関東中央病院前",
    "points": [
      [
        {"lat":35.63869608604696, "lng":139.62629078255543}
      ]
    ],
    "importance": 70,
    "description": ""
  },
  {
    "name": "かむろ坂下",
    "points": [
      [
        {"lat":35.62744892609604, "lng":139.71391391269498}
      ]
    ],
    "importance": 70,
    "description": ""
  },
  {
    "name": "亀戸駅前",
    "points": [
      [
        {"lat":35.69658713997892, "lng":139.8257565738451}
      ]
    ],
    "importance": 70,
    "description": ""
  },
  {
    "name": "亀戸九丁目",
    "points": [
      [
        {"lat":35.69747354886911, "lng":139.84302332227827}
      ]
    ],
    "importance": 70,
    "description": ""
  },
  {
    "name": "亀戸七丁目",
    "points": [
      [
        {"lat":35.697077851167336, "lng":139.83400358417092}
      ]
    ],
    "importance": 70,
    "description": ""
  },
  {
    "name": "亀戸四丁目",
    "points": [
      [
        {"lat":35.701742237268704, "lng":139.8253786818648}
      ]
    ],
    "importance": 70,
    "description": ""
  },
  {
    "name": "亀高橋",
    "points": [
      [
        {"lat":35.67626473901435, "lng":139.83380723987003}
      ]
    ],
    "importance": 70,
    "description": ""
  },
  {
    "name": "茅場町",
    "points": [
      [
        {"lat":35.67992632364684, "lng":139.7801394619928}
      ]
    ],
    "importance": 70,
    "description": ""
  },
  {
    "name": "神田橋",
    "points": [
      [
        {"lat":35.69010747152447, "lng":139.76447108106066}
      ]
    ],
    "importance": 70,
    "description": ""
  },
  {
    "name": "環七大井ふ頭",
    "points": [
      [
        {"lat":35.58448964326336, "lng":139.75539814054224}
      ]
    ],
    "importance": 70,
    "description": ""
  },
  {
    "name": "観音橋（渋谷区）",
    "points": [
      [
        {"lat":35.67696195899491, "lng":139.71262072197155}
      ]
    ],
    "importance": 70,
    "description": ""
  },
  {
    "name": "環八五日市交差点",
    "points": [
      [
        {"lat":35.6901143903743, "lng":139.61640542284687}
      ]
    ],
    "importance": 70,
    "description": ""
  },
  {
    "name": "環八井の頭交差点",
    "points": [
      [
        {"lat":35.6887328295558, "lng":139.61620204106447}
      ]
    ],
    "importance": 70,
    "description": ""
  },
  {
    "name": "環八東名入口",
    "points": [
      [
        {"lat":35.62729800333556, "lng":139.6264680244599}
      ]
    ],
    "importance": 70,
    "description": ""
  },
  {
    "name": "環八南田中",
    "points": [
      [
        {"lat":35.73371267804183, "lng":139.61466060315078}
      ]
    ],
    "importance": 70,
    "description": ""
  },
  {
    "name": "菊川駅前",
    "points": [
      [
        {"lat":35.68840769563248, "lng":139.80605676662384}
      ]
    ],
    "importance": 70,
    "description": ""
  },
  {
    "name": "菊川二丁目",
    "points": [
      [
        {"lat":35.69007914418966, "lng":139.80590943940646}
      ]
    ],
    "importance": 70,
    "description": ""
  },
  {
    "name": "菊屋橋",
    "points": [
      [
        {"lat":35.710326894353415, "lng":139.78825403452157}
      ]
    ],
    "importance": 70,
    "description": ""
  },
  {
    "name": "東京消防庁前",
    "points": [
      [
        {"lat":35.68947103276474, "lng":139.76080271363105}
      ]
    ],
    "importance": 70,
    "description": ""
  },
  {
    "name": "北参道",
    "points": [
      [
        {"lat":35.680413508927806, "lng":139.70455255216106}
      ]
    ],
    "importance": 70,
    "description": ""
  },
  {
    "name": "北品川三丁目",
    "points": [
      [
        {"lat":35.618250613425666, "lng":139.74088231589158}
      ]
    ],
    "importance": 70,
    "description": ""
  },
  {
    "name": "北品川二丁目",
    "points": [
      [
        {"lat":35.61688647936959, "lng":139.7410266653365}
      ]
    ],
    "importance": 70,
    "description": ""
  },
  {
    "name": "北新宿一丁目",
    "points": [
      [
        {"lat":35.701852454009895, "lng":139.69524284399185}
      ]
    ],
    "importance": 70,
    "description": ""
  },
  {
    "name": "北新宿三丁目",
    "points": [
      [
        {"lat":35.70165562367265, "lng":139.68833507966008}
      ]
    ],
    "importance": 70,
    "description": ""
  },
  {
    "name": "吉祥寺駅前",
    "points": [
      [
        {"lat":35.70293339141515, "lng":139.57725401337365}
      ]
    ],
    "importance": 70,
    "description": ""
  },
  {
    "name": "吉祥寺前",
    "points": [
      [
        {"lat":35.72720240075658, "lng":139.75272839557704}
      ]
    ],
    "importance": 70,
    "description": ""
  },
  {
    "name": "（砧中前）",
    "points": [
      [
        {"lat":35.63250184871546, "lng":139.60028747163648}
      ]
    ],
    "importance": 70,
    "description": ""
  },
  {
    "name": "木場五丁目",
    "points": [
      [
        {"lat":35.66943944315248, "lng":139.8058323325307}
      ]
    ],
    "importance": 70,
    "description": ""
  },
  {
    "name": "給田",
    "points": [
      [
        {"lat":35.66810086256795, "lng":139.5927187788176}
      ]
    ],
    "importance": 70,
    "description": ""
  },
  {
    "name": "清澄三丁目",
    "points": [
      [
        {"lat":35.682039457593056, "lng":139.79878615296965}
      ]
    ],
    "importance": 70,
    "description": ""
  },
  {
    "name": "桐ヶ谷",
    "points": [
      [
        {"lat":35.61945888302767, "lng":139.71693932761437}
      ]
    ],
    "importance": 70,
    "description": ""
  },
  {
    "name": "基督教大裏門",
    "points": [
      [
        {"lat":35.68148930452677, "lng":139.53385193184533}
      ]
    ],
    "importance": 70,
    "description": ""
  },
  {
    "name": "銀座四丁目",
    "points": [
      [
        {"lat":35.67122786181296, "lng":139.7650358642636}
      ]
    ],
    "importance": 70,
    "description": ""
  },
  {
    "name": "錦糸町駅前",
    "points": [
      [
        {"lat":35.69569056083942, "lng":139.8150542796399}
      ]
    ],
    "importance": 70,
    "description": ""
  },
  {
    "name": "金竜小学校前",
    "points": [
      [
        {"lat":35.71813554952417, "lng":139.78933544064375}
      ]
    ],
    "importance": 70,
    "description": ""
  },
  {
    "name": "九段坂上",
    "points": [
      [
        {"lat":35.69429845603375, "lng":139.74644046053402}
      ]
    ],
    "importance": 70,
    "description": ""
  },
  {
    "name": "九段下",
    "points": [
      [
        {"lat":35.69545756467366, "lng":139.7513806193618}
      ]
    ],
    "importance": 70,
    "description": ""
  },
  {
    "name": "熊野神社前",
    "points": [
      [
        {"lat":35.69109478935586, "lng":139.68732063304338}
      ]
    ],
    "importance": 70,
    "description": ""
  },
  {
    "name": "熊野町",
    "points": [
      [
        {"lat":35.74123078689767, "lng":139.70679436477178}
      ]
    ],
    "importance": 70,
    "description": ""
  },
  {
    "name": "熊野前",
    "points": [
      [
        {"lat":35.74916904078075, "lng":139.7696906414932}
      ]
    ],
    "importance": 70,
    "description": ""
  },
  {
    "name": "（江東区）区民センター前",
    "points": [
      [
        {"lat":35.68937551687353, "lng":139.82633955605624}
      ]
    ],
    "importance": 70,
    "description": ""
  },
  {
    "name": "鞍掛橋（中央区）",
    "points": [
      [
        {"lat":35.692183310673705, "lng":139.7808881791143}
      ]
    ],
    "importance": 70,
    "description": ""
  },
  {
    "name": "蔵前一丁目",
    "points": [
      [
        {"lat":35.701595715697515, "lng":139.7891525629462}
      ]
    ],
    "importance": 70,
    "description": ""
  },
  {
    "name": "蔵前四丁目",
    "points": [
      [
        {"lat":35.701791085681045, "lng":139.78801230715484}
      ]
    ],
    "importance": 70,
    "description": ""
  },
  {
    "name": "京急蒲田駅前",
    "points": [
      [
        {"lat":35.55950518570552, "lng":139.72298845999669}
      ]
    ],
    "importance": 70,
    "description": ""
  },
  {
    "name": "慶大正門前",
    "points": [
      [
        {"lat":35.64793434063078, "lng":139.74264210513755}
      ]
    ],
    "importance": 70,
    "description": ""
  },
  {
    "name": "小石川五丁目",
    "points": [
      [
        {"lat":35.71535092102864, "lng":139.73986007794952}
      ]
    ],
    "importance": 70,
    "description": ""
  },
  {
    "name": "高円寺陸橋下",
    "points": [
      [
        {"lat":35.69802144179297, "lng":139.65467417298802}
      ]
    ],
    "importance": 70,
    "description": ""
  },
  {
    "name": "航空宇宙技術研究所",
    "points": [
      [
        {"lat":35.681143923367216, "lng":139.5578624173311}
      ]
    ],
    "importance": 70,
    "description": ""
  },
  {
    "name": "糀谷駅前",
    "points": [
      [
        {"lat":35.553649074140665, "lng":139.72985249524015}
      ]
    ],
    "importance": 70,
    "description": ""
  },
  {
    "name": "江東試験場入口",
    "points": [
      [
        {"lat":35.66978938700468, "lng":139.82193579553046}
      ]
    ],
    "importance": 70,
    "description": ""
  },
  {
    "name": "江東西税務署入口",
    "points": [
      [
        {"lat":35.68616619472292, "lng":139.8159514417335}
      ]
    ],
    "importance": 70,
    "description": ""
  },
  {
    "name": "江東橋",
    "points": [
      [
        {"lat":35.695258685711096, "lng":139.8092995741729}
      ]
    ],
    "importance": 70,
    "description": ""
  },
  {
    "name": "江北陸橋下",
    "points": [
      [
        {"lat":35.77822693968071, "lng":139.77017384843046}
      ]
    ],
    "importance": 70,
    "description": ""
  },
  {
    "name": "国立医療センター前",
    "points": [
      [
        {"lat":35.70118816123739, "lng":139.71658919150863}
      ]
    ],
    "importance": 70,
    "description": ""
  },
  {
    "name": "護国寺前",
    "points": [
      [
        {"lat":35.72002725915515, "lng":139.7270352155812}
      ]
    ],
    "importance": 70,
    "description": ""
  },
  {
    "name": "国会前",
    "points": [
      [
        {"lat":35.67678842323014, "lng":139.74949002617254}
      ]
    ],
    "importance": 70,
    "description": ""
  },
  {
    "name": "小伝馬町",
    "points": [
      [
        {"lat":35.69073318817499, "lng":139.77847292578318}
      ]
    ],
    "importance": 70,
    "description": ""
  },
  {
    "name": "言問橋西",
    "points": [
      [
        {"lat":35.71517678695464, "lng":139.80180987513668}
      ]
    ],
    "importance": 70,
    "description": ""
  },
  {
    "name": "言問橋東",
    "points": [
      [
        {"lat":35.7128997069707, "lng":139.80575375022897}
      ]
    ],
    "importance": 70,
    "description": ""
  },
  {
    "name": "寿三丁目",
    "points": [
      [
        {"lat":35.70609140196421, "lng":139.79075364504936}
      ]
    ],
    "importance": 70,
    "description": ""
  },
  {
    "name": "寿橋",
    "points": [
      [
        {"lat":35.69093987662081, "lng":139.66912831492573}
      ]
    ],
    "importance": 70,
    "description": ""
  },
  {
    "name": "寿四丁目",
    "points": [
      [
        {"lat":35.70969206643186, "lng":139.79140435323063}
      ]
    ],
    "importance": 70,
    "description": ""
  },
  {
    "name": "五之橋通り",
    "points": [
      [
        {"lat":35.69446982124452, "lng":139.8259224965967}
      ]
    ],
    "importance": 70,
    "description": ""
  },
  {
    "name": "五之橋南詰",
    "points": [
      [
        {"lat":35.69330541380226, "lng":139.82601583731545}
      ]
    ],
    "importance": 70,
    "description": ""
  },
  {
    "name": "呉服橋",
    "points": [
      [
        {"lat":35.683597836145076, "lng":139.77096175865006}
      ]
    ],
    "importance": 70,
    "description": ""
  },
  {
    "name": "五本木",
    "points": [
      [
        {"lat":35.63225207676825, "lng":139.68667459430714}
      ]
    ],
    "importance": 70,
    "description": ""
  },
  {
    "name": "駒形二丁目",
    "points": [
      [
        {"lat":35.70734146627531, "lng":139.79517098112476}
      ]
    ],
    "importance": 70,
    "description": ""
  },
  {
    "name": "駒形橋西詰",
    "points": [
      [
        {"lat":35.70884988540467, "lng":139.79612759174452}
      ]
    ],
    "importance": 70,
    "description": ""
  },
  {
    "name": "駒沢大学駅前",
    "points": [
      [
        {"lat":35.63317212211688, "lng":139.661133025502}
      ]
    ],
    "importance": 70,
    "description": ""
  },
  {
    "name": "駒沢陸橋",
    "points": [
      [
        {"lat":35.62748042329097, "lng":139.67661620312762}
      ]
    ],
    "importance": 70,
    "description": ""
  },
  {
    "name": "駒本小学校前",
    "points": [
      [
        {"lat":35.72462015287335, "lng":139.75373967018214}
      ]
    ],
    "importance": 70,
    "description": ""
  },
  {
    "name": "権田原",
    "points": [
      [
        {"lat":35.67717815901533, "lng":139.7209779969546}
      ]
    ],
    "importance": 70,
    "description": ""
  },
  {
    "name": "境川",
    "points": [
      [
        {"lat":35.67710862909808, "lng":139.82711786982244}
      ]
    ],
    "importance": 70,
    "description": ""
  },
  {
    "name": "境浄水場西",
    "points": [
      [
        {"lat":35.71232281689528, "lng":139.54387757892428}
      ]
    ],
    "importance": 70,
    "description": ""
  },
  {
    "name": "鷺宮四丁目",
    "points": [
      [
        {"lat":35.726324148131596, "lng":139.63865318248332}
      ]
    ],
    "importance": 70,
    "description": ""
  },
  {
    "name": "桜三丁目",
    "points": [
      [
        {"lat":35.64018967281864, "lng":139.6389229990267}
      ]
    ],
    "importance": 70,
    "description": ""
  },
  {
    "name": "桜小前",
    "points": [
      [
        {"lat":35.64142144305647, "lng":139.64383825188713}
      ]
    ],
    "importance": 70,
    "description": ""
  },
  {
    "name": "桜田門",
    "points": [
      [
        {"lat":35.67771754765368, "lng":139.75348268619754}
      ]
    ],
    "importance": 70,
    "description": ""
  },
  {
    "name": "笹塚",
    "points": [
      [
        {"lat":35.67546078066652, "lng":139.67086485550726}
      ]
    ],
    "importance": 70,
    "description": ""
  },
  {
    "name": "笹塚三丁目",
    "points": [
      [
        {"lat":35.67905737887305, "lng":139.67005648458593}
      ]
    ],
    "importance": 70,
    "description": ""
  },
  {
    "name": "サッカーミュージアム入口",
    "points": [
      [
        {"lat":35.70317269442304, "lng":139.7635345948823}
      ]
    ],
    "importance": 70,
    "description": ""
  },
  {
    "name": "三軒茶屋",
    "points": [
      [
        {"lat":35.643573305644004, "lng":139.67119082800326}
      ]
    ],
    "importance": 70,
    "description": ""
  },
  {
    "name": "三本杉陸橋",
    "points": [
      [
        {"lat":35.63703966239623, "lng":139.62114414341767}
      ]
    ],
    "importance": 70,
    "description": ""
  },
  {
    "name": "汐先橋",
    "points": [
      [
        {"lat":35.66385712650578, "lng":139.76331084152883}
      ]
    ],
    "importance": 70,
    "description": ""
  },
  {
    "name": "鹿本中学前",
    "points": [
      [
        {"lat":35.719148986940525, "lng":139.8773963710769}
      ]
    ],
    "importance": 70,
    "description": ""
  },
  {
    "name": "品川駅前",
    "points": [
      [
        {"lat":35.62890597998202, "lng":139.73751480917772}
      ]
    ],
    "importance": 70,
    "description": ""
  },
  {
    "name": "信濃町駅前",
    "points": [
      [
        {"lat":35.680404160009395, "lng":139.71925485258737}
      ]
    ],
    "importance": 70,
    "description": ""
  },
  {
    "name": "（東雲）",
    "points": [
      [
        {"lat":35.64131328469644, "lng":139.80251079370848}
      ]
    ],
    "importance": 70,
    "description": ""
  },
  {
    "name": "芝園橋",
    "points": [
      [
        {"lat":35.65263426515435, "lng":139.7496195823076}
      ]
    ],
    "importance": 70,
    "description": ""
  },
  {
    "name": "芝五丁目",
    "points": [
      [
        {"lat":35.647620286121885, "lng":139.74882884728686}
      ]
    ],
    "importance": 70,
    "description": ""
  },
  {
    "name": "芝大門",
    "points": [
      [
        {"lat":35.65697757992232, "lng":139.7528601924674}
      ]
    ],
    "importance": 70,
    "description": ""
  },
  {
    "name": "柴又新道口",
    "points": [
      [
        {"lat":35.73618544964389, "lng":139.88474069523167}
      ]
    ],
    "importance": 70,
    "description": ""
  },
  {
    "name": "芝郵便局前",
    "points": [
      [
        {"lat":35.662950475978285, "lng":139.7523598630532}
      ]
    ],
    "importance": 70,
    "description": ""
  },
  {
    "name": "芝四丁目",
    "points": [
      [
        {"lat":35.64912395918114, "lng":139.75307524809102}
      ]
    ],
    "importance": 70,
    "description": ""
  },
  {
    "name": "渋谷署前",
    "points": [
      [
        {"lat":35.65817577002291, "lng":139.70434096751882}
      ]
    ],
    "importance": 70,
    "description": ""
  },
  {
    "name": "渋谷橋",
    "points": [
      [
        {"lat":35.648949244342056, "lng":139.71133352826615}
      ]
    ],
    "importance": 70,
    "description": ""
  },
  {
    "name": "清水三丁目",
    "points": [
      [
        {"lat":35.71909159648309, "lng":139.61409043113832}
      ]
    ],
    "importance": 70,
    "description": ""
  },
  {
    "name": "清水橋（渋谷区）",
    "points": [
      [
        {"lat":35.6888840481961, "lng":139.68228732039745}
      ]
    ],
    "importance": 70,
    "description": ""
  },
  {
    "name": "志村坂下",
    "points": [
      [
        {"lat":35.78467566254682, "lng":139.68651992151615}
      ]
    ],
    "importance": 70,
    "description": ""
  },
  {
    "name": "志村三丁目",
    "points": [
      [
        {"lat":35.78008591755109, "lng":139.690902460225}
      ]
    ],
    "importance": 70,
    "description": ""
  },
  {
    "name": "四面道",
    "points": [
      [
        {"lat":35.70804621803318, "lng":139.6151037946524}
      ]
    ],
    "importance": 70,
    "description": ""
  },
  {
    "name": "志茂五丁目",
    "points": [
      [
        {"lat":35.78246079215938, "lng":139.72675616887787}
      ]
    ],
    "importance": 70,
    "description": ""
  },
  {
    "name": "下丸子",
    "points": [
      [
        {"lat":35.568747347402024, "lng":139.68630797828033}
      ]
    ],
    "importance": 70,
    "description": ""
  },
  {
    "name": "十貫坂上",
    "points": [
      [
        {"lat":35.69433017571075, "lng":139.66833995678485}
      ]
    ],
    "importance": 70,
    "description": ""
  },
  {
    "name": "順天堂前",
    "points": [
      [
        {"lat":35.70183073179162, "lng":139.76198910248613}
      ]
    ],
    "importance": 70,
    "description": ""
  },
  {
    "name": "松陰神社入口",
    "points": [
      [
        {"lat":35.642296044684365, "lng":139.6548701781505}
      ]
    ],
    "importance": 70,
    "description": ""
  },
  {
    "name": "松濤二丁目",
    "points": [
      [
        {"lat":35.65788335648885, "lng":139.69086836361168}
      ]
    ],
    "importance": 70,
    "description": ""
  },
  {
    "name": "昌平橋",
    "points": [
      [
        {"lat":35.698715791595276, "lng":139.7689823576471}
      ]
    ],
    "importance": 70,
    "description": ""
  },
  {
    "name": "昭和大病院前",
    "points": [
      [
        {"lat":35.609253826368814, "lng":139.70504638697662}
      ]
    ],
    "importance": 70,
    "description": ""
  },
  {
    "name": "昭和町",
    "points": [
      [
        {"lat":35.74995970866674, "lng":139.7494925255297}
      ]
    ],
    "importance": 70,
    "description": ""
  },
  {
    "name": "昭和町二丁目",
    "points": [
      [
        {"lat":35.748090518065865, "lng":139.75293626020772}
      ]
    ],
    "importance": 70,
    "description": ""
  },
  {
    "name": "白河三丁目",
    "points": [
      [
        {"lat":35.68250353112649, "lng":139.8065450706751}
      ]
    ],
    "importance": 70,
    "description": ""
  },
  {
    "name": "白鳥",
    "points": [
      [
        {"lat":35.749546427502274, "lng":139.84788197470007}
      ]
    ],
    "importance": 70,
    "description": ""
  },
  {
    "name": "白髭橋東詰",
    "points": [
      [
        {"lat":35.72756008945818, "lng":139.8131387942511}
      ]
    ],
    "importance": 70,
    "description": ""
  },
  {
    "name": "白金一丁目",
    "points": [
      [
        {"lat":35.64296907362173, "lng":139.73410861012954}
      ]
    ],
    "importance": 70,
    "description": ""
  },
  {
    "name": "白金台",
    "points": [
      [
        {"lat":35.636984850950746, "lng":139.72403637196024}
      ]
    ],
    "importance": 70,
    "description": ""
  },
  {
    "name": "新大橋",
    "points": [
      [
        {"lat":35.68798198827607, "lng":139.79415569918467}
      ]
    ],
    "importance": 70,
    "description": ""
  },
  {
    "name": "新大橋西",
    "points": [
      [
        {"lat":35.686790880811614, "lng":139.79064494931387}
      ]
    ],
    "importance": 70,
    "description": ""
  },
  {
    "name": "新小原橋",
    "points": [
      [
        {"lat":35.70179615849612, "lng":139.83418520235546}
      ]
    ],
    "importance": 70,
    "description": ""
  },
  {
    "name": "進開橋南詰",
    "points": [
      [
        {"lat":35.685128641396346, "lng":139.8266905054666}
      ]
    ],
    "importance": 70,
    "description": ""
  },
  {
    "name": "新川一丁目",
    "points": [
      [
        {"lat":35.67862239283699, "lng":139.78255154964543}
      ]
    ],
    "importance": 70,
    "description": ""
  },
  {
    "name": "新川交番前",
    "points": [
      [
        {"lat":35.68108876237941, "lng":139.57008363389494}
      ]
    ],
    "importance": 70,
    "description": ""
  },
  {
    "name": "神宮前",
    "points": [
      [
        {"lat":35.66852307565533, "lng":139.70537660936301}
      ]
    ],
    "importance": 70,
    "description": ""
  },
  {
    "name": "神宮前一丁目",
    "points": [
      [
        {"lat":35.67212868559878, "lng":139.7081329075923}
      ]
    ],
    "importance": 70,
    "description": ""
  },
  {
    "name": "神宮前三丁目",
    "points": [
      [
        {"lat":35.67240846351686, "lng":139.71258246683746}
      ]
    ],
    "importance": 70,
    "description": ""
  },
  {
    "name": "新宿大ガード西",
    "points": [
      [
        {"lat":35.693639741604244, "lng":139.69913056688407}
      ]
    ],
    "importance": 70,
    "description": ""
  },
  {
    "name": "新宿大ガード東",
    "points": [
      [
        {"lat":35.693622371407606, "lng":139.70044357150329}
      ]
    ],
    "importance": 70,
    "description": ""
  },
  {
    "name": "新宿五丁目",
    "points": [
      [
        {"lat":35.692444975666255, "lng":139.7058116953094}
      ]
    ],
    "importance": 70,
    "description": ""
  },
  {
    "name": "新宿三丁目",
    "points": [
      [
        {"lat":35.69087067829015, "lng":139.70486471083882}
      ]
    ],
    "importance": 70,
    "description": ""
  },
  {
    "name": "新宿七丁目",
    "points": [
      [
        {"lat":35.69794552435452, "lng":139.70749858196157}
      ]
    ],
    "importance": 70,
    "description": ""
  },
  {
    "name": "新宿四丁目",
    "points": [
      [
        {"lat":35.68979241450664, "lng":139.7041369776577}
      ]
    ],
    "importance": 70,
    "description": ""
  },
  {
    "name": "新砂一丁目",
    "points": [
      [
        {"lat":35.663276783894084, "lng":139.8237115435995}
      ]
    ],
    "importance": 70,
    "description": ""
  },
  {
    "name": "神泉町",
    "points": [
      [
        {"lat":35.65399274386676, "lng":139.693285303029}
      ]
    ],
    "importance": 70,
    "description": ""
  },
  {
    "name": "新東海橋",
    "points": [
      [
        {"lat":35.62053602736054, "lng":139.74625727972966}
      ]
    ],
    "importance": 70,
    "description": ""
  },
  {
    "name": "新常盤橋",
    "points": [
      [
        {"lat":35.68756970464734, "lng":139.77000882246782}
      ]
    ],
    "importance": 70,
    "description": ""
  },
  {
    "name": "（新橋）",
    "points": [
      [
        {"lat":35.66673653325329, "lng":139.7604747796087}
      ]
    ],
    "importance": 70,
    "description": ""
  },
  {
    "name": "新橋駅前",
    "points": [
      [
        {"lat":35.66557021147972, "lng":139.75949736877692}
      ]
    ],
    "importance": 70,
    "description": ""
  },
  {
    "name": "新橋五丁目",
    "points": [
      [
        {"lat":35.66243541888501, "lng":139.75695253795288}
      ]
    ],
    "importance": 70,
    "description": ""
  },
  {
    "name": "神保町",
    "points": [
      [
        {"lat":35.695958038873975, "lng":139.75808464290498}
      ]
    ],
    "importance": 70,
    "description": ""
  },
  {
    "name": "水神森",
    "points": [
      [
        {"lat":35.696711595252935, "lng":139.82819740649373}
      ]
    ],
    "importance": 70,
    "description": ""
  },
  {
    "name": "水天宮前",
    "points": [
      [
        {"lat":35.68383747180221, "lng":139.7844983892993}
      ]
    ],
    "importance": 70,
    "description": ""
  },
  {
    "name": "水道橋",
    "points": [
      [
        {"lat":35.70240199474033, "lng":139.7554067693629}
      ]
    ],
    "importance": 70,
    "description": ""
  },
  {
    "name": "巣鴨駅前",
    "points": [
      [
        {"lat":35.732868490747435, "lng":139.7393094414415}
      ]
    ],
    "importance": 70,
    "description": ""
  },
  {
    "name": "巣鴨四丁目",
    "points": [
      [
        {"lat":35.73835887777323, "lng":139.73359586634385}
      ]
    ],
    "importance": 70,
    "description": ""
  },
  {
    "name": "杉並区役所前",
    "points": [
      [
        {"lat":35.69947492994513, "lng":139.6355135818105}
      ]
    ],
    "importance": 70,
    "description": ""
  },
  {
    "name": "数寄屋橋",
    "points": [
      [
        {"lat":35.67253566065067, "lng":139.76326305353385}
      ]
    ],
    "importance": 70,
    "description": ""
  },
  {
    "name": "杉山公園",
    "points": [
      [
        {"lat":35.697421353316344, "lng":139.66741982823424}
      ]
    ],
    "importance": 70,
    "description": ""
  },
  {
    "name": "須田町",
    "points": [
      [
        {"lat":35.69580386958664, "lng":139.77000678538968}
      ]
    ],
    "importance": 70,
    "description": ""
  },
  {
    "name": "砂町銀座入口",
    "points": [
      [
        {"lat":35.679264544818444, "lng":139.82744570809524}
      ]
    ],
    "importance": 70,
    "description": ""
  },
  {
    "name": "住吉一丁目",
    "points": [
      [
        {"lat":35.68873104627752, "lng":139.81075365914091}
      ]
    ],
    "importance": 70,
    "description": ""
  },
  {
    "name": "住吉二丁目",
    "points": [
      [
        {"lat":35.68901308764877, "lng":139.8157139268451}
      ]
    ],
    "importance": 70,
    "description": ""
  },
  {
    "name": "住吉町",
    "points": [
      [
        {"lat":35.692308834501254, "lng":139.72138080902428}
      ]
    ],
    "importance": 70,
    "description": ""
  },
  {
    "name": "駿河台三丁目",
    "points": [
      [
        {"lat":35.696700540989475, "lng":139.7653331096894}
      ]
    ],
    "importance": 70,
    "description": ""
  },
  {
    "name": "清正公前",
    "points": [
      [
        {"lat":35.64038696386096, "lng":139.73278757062081}
      ]
    ],
    "importance": 70,
    "description": ""
  },
  {
    "name": "関原三丁目",
    "points": [
      [
        {"lat":35.77189081612484, "lng":139.78471462068805}
      ]
    ],
    "importance": 70,
    "description": ""
  },
  {
    "name": "関前五丁目",
    "points": [
      [
        {"lat":35.71317371259948, "lng":139.54177825432933}
      ]
    ],
    "importance": 70,
    "description": ""
  },
  {
    "name": "関町一丁目",
    "points": [
      [
        {"lat":35.7218913677228, "lng":139.58740420899426}
      ]
    ],
    "importance": 70,
    "description": ""
  },
  {
    "name": "関町交番前",
    "points": [
      [
        {"lat":35.72324934788825, "lng":139.58163604346606}
      ]
    ],
    "importance": 70,
    "description": ""
  },
  {
    "name": "瀬田",
    "points": [
      [
        {"lat":35.62114998266879, "lng":139.63120577023818}
      ]
    ],
    "importance": 70,
    "description": ""
  },
  {
    "name": "世田谷駅前",
    "points": [
      [
        {"lat":35.64264860263225, "lng":139.65078210980593}
      ]
    ],
    "importance": 70,
    "description": ""
  },
  {
    "name": "世田谷三丁目",
    "points": [
      [
        {"lat":35.64298189703146, "lng":139.6476982786229}
      ]
    ],
    "importance": 70,
    "description": ""
  },
  {
    "name": "泉岳寺",
    "points": [
      [
        {"lat":35.637576027470864, "lng":139.73941600711754}
      ]
    ],
    "importance": 70,
    "description": ""
  },
  {
    "name": "千石一丁目",
    "points": [
      [
        {"lat":35.72864827317737, "lng":139.7438769428354}
      ]
    ],
    "importance": 70,
    "description": ""
  },
  {
    "name": "千石駅前",
    "points": [
      [
        {"lat":35.72734307462904, "lng":139.74559422986408}
      ]
    ],
    "importance": 70,
    "description": ""
  },
  {
    "name": "千石三丁目",
    "points": [
      [
        {"lat":35.72352269386368, "lng":139.73722929961272}
      ]
    ],
    "importance": 70,
    "description": ""
  },
  {
    "name": "千石二丁目",
    "points": [
      [
        {"lat":35.678797779226784, "lng":139.81597911608773}
      ]
    ],
    "importance": 70,
    "description": ""
  },
  {
    "name": "仙寿院",
    "points": [
      [
        {"lat":35.67564815335926, "lng":139.71267241660902}
      ]
    ],
    "importance": 70,
    "description": ""
  },
  {
    "name": "千住桜木町",
    "points": [
      [
        {"lat":35.75576778661913, "lng":139.78994889140102}
      ]
    ],
    "importance": 70,
    "description": ""
  },
  {
    "name": "千住新橋北詰",
    "points": [
      [
        {"lat":35.76160490169206, "lng":139.80358010342104}
      ]
    ],
    "importance": 70,
    "description": ""
  },
  {
    "name": "千住宮元町",
    "points": [
      [
        {"lat":35.744389445885005, "lng":139.79779292266988}
      ]
    ],
    "importance": 70,
    "description": ""
  },
  {
    "name": "千駄ヶ谷三丁目",
    "points": [
      [
        {"lat":35.676574140744215, "lng":139.70639478944025}
      ]
    ],
    "importance": 70,
    "description": ""
  },
  {
    "name": "千駄ケ谷小学校",
    "points": [
      [
        {"lat":35.67463724371208, "lng":139.70707074868054}
      ]
    ],
    "importance": 70,
    "description": ""
  },
  {
    "name": "千駄木二丁目",
    "points": [
      [
        {"lat":35.721250191217976, "lng":139.76215838406293}
      ]
    ],
    "importance": 70,
    "description": ""
  },
  {
    "name": "善福寺一丁目",
    "points": [
      [
        {"lat":35.7144553690509, "lng":139.5987500989593}
      ]
    ],
    "importance": 70,
    "description": ""
  },
  {
    "name": "増上寺前",
    "points": [
      [
        {"lat":35.65721557334572, "lng":139.75025078353917}
      ]
    ],
    "importance": 70,
    "description": ""
  },
  {
    "name": "総武陸橋下",
    "points": [
      [
        {"lat":35.72836837835301, "lng":139.87006866284756}
      ]
    ],
    "importance": 70,
    "description": ""
  },
  {
    "name": "総務省統計局角",
    "points": [
      [
        {"lat":35.701408620908836, "lng":139.71401053807875}
      ]
    ],
    "importance": 70,
    "description": ""
  },
  {
    "name": "外神田五丁目",
    "points": [
      [
        {"lat":35.702968177595885, "lng":139.77173124769257}
      ]
    ],
    "importance": 70,
    "description": ""
  },
  {
    "name": "太子堂四丁目",
    "points": [
      [
        {"lat":35.64302167697198, "lng":139.66620019916303}
      ]
    ],
    "importance": 70,
    "description": ""
  },
  {
    "name": "台東一丁目",
    "points": [
      [
        {"lat":35.70263993988892, "lng":139.77576620861893}
      ]
    ],
    "importance": 70,
    "description": ""
  },
  {
    "name": "台東四丁目",
    "points": [
      [
        {"lat":35.70764583142078, "lng":139.77629139314135}
      ]
    ],
    "importance": 70,
    "description": ""
  },
  {
    "name": "大手町一丁目",
    "points": [
      [
        {"lat":35.68821181435128, "lng":139.76397597621173}
      ]
    ],
    "importance": 70,
    "description": ""
  },
  {
    "name": "太平一丁目",
    "points": [
      [
        {"lat":35.70091424818145, "lng":139.80946630641955}
      ]
    ],
    "importance": 70,
    "description": ""
  },
  {
    "name": "太平四丁目",
    "points": [
      [
        {"lat":35.70120860049467, "lng":139.81468882294274}
      ]
    ],
    "importance": 70,
    "description": ""
  },
  {
    "name": "大門",
    "points": [
      [
        {"lat":35.656803337681296, "lng":139.75468126250263}
      ]
    ],
    "importance": 70,
    "description": ""
  },
  {
    "name": "高戸橋",
    "points": [
      [
        {"lat":35.714370259772565, "lng":139.71133557591904}
      ]
    ],
    "importance": 70,
    "description": ""
  },
  {
    "name": "（高輪台）",
    "points": [
      [
        {"lat":35.632164337941674, "lng":139.73076188463085}
      ]
    ],
    "importance": 70,
    "description": ""
  },
  {
    "name": "高輪二丁目",
    "points": [
      [
        {"lat":35.63402913920422, "lng":139.73812759667}
      ]
    ],
    "importance": 70,
    "description": ""
  },
  {
    "name": "宝町三丁目",
    "points": [
      [
        {"lat":35.688625668901565, "lng":139.77298052182346}
      ]
    ],
    "importance": 70,
    "description": ""
  },
  {
    "name": "滝野川二丁目",
    "points": [
      [
        {"lat":35.74688430051563, "lng":139.73168117285064}
      ]
    ],
    "importance": 70,
    "description": ""
  },
  {
    "name": "辰巳",
    "points": [
      [
        {"lat":35.644658304070866, "lng":139.81266156605957}
      ]
    ],
    "importance": 70,
    "description": ""
  },
  {
    "name": "たつみ橋",
    "points": [
      [
        {"lat":35.71924585859871, "lng":139.85694480105238}
      ]
    ],
    "importance": 70,
    "description": ""
  },
  {
    "name": "田端新町一丁目",
    "points": [
      [
        {"lat":35.73923408357179, "lng":139.76867129004918}
      ]
    ],
    "importance": 70,
    "description": ""
  },
  {
    "name": "田端新町三丁目",
    "points": [
      [
        {"lat":35.74289452718283, "lng":139.76245669322216}
      ]
    ],
    "importance": 70,
    "description": ""
  },
  {
    "name": "多摩川一丁目",
    "points": [
      [
        {"lat":35.56368604504164, "lng":139.6991557472606}
      ]
    ],
    "importance": 70,
    "description": ""
  },
  {
    "name": "玉川浄水場",
    "points": [
      [
        {"lat":35.60167213553984, "lng":139.66019398184508}
      ]
    ],
    "importance": 70,
    "description": ""
  },
  {
    "name": "玉川田園調布",
    "points": [
      [
        {"lat":35.600744020290705, "lng":139.66448794809807}
      ]
    ],
    "importance": 70,
    "description": ""
  },
  {
    "name": "多摩美大前",
    "points": [
      [
        {"lat":35.61487335526201, "lng":139.63687333950142}
      ]
    ],
    "importance": 70,
    "description": ""
  },
  {
    "name": "溜池",
    "points": [
      [
        {"lat":35.670994194650696, "lng":139.74288204183253}
      ]
    ],
    "importance": 70,
    "description": ""
  },
  {
    "name": "田安門",
    "points": [
      [
        {"lat":35.69502625575687, "lng":139.74885917852228}
      ]
    ],
    "importance": 70,
    "description": ""
  },
  {
    "name": "団子坂下",
    "points": [
      [
        {"lat":35.724822644990155, "lng":139.76306344030314}
      ]
    ],
    "importance": 70,
    "description": ""
  },
  {
    "name": "千歲台",
    "points": [
      [
        {"lat":35.659326542225365, "lng":139.61476893214655}
      ]
    ],
    "importance": 70,
    "description": ""
  },
  {
    "name": "千登世橋上",
    "points": [
      [
        {"lat":35.71905263211258, "lng":139.7132370653234}
      ]
    ],
    "importance": 70,
    "description": ""
  },
  {
    "name": "千鳥一丁目",
    "points": [
      [
        {"lat":35.572474985107746, "lng":139.69735134354048}
      ]
    ],
    "importance": 70,
    "description": ""
  },
  {
    "name": "中央市場前",
    "points": [
      [
        {"lat":35.66418536791117, "lng":139.76783447465857}
      ]
    ],
    "importance": 70,
    "description": ""
  },
  {
    "name": "中央通り",
    "points": [
      [
        {"lat":35.70738678506373, "lng":139.56107399851345}
      ]
    ],
    "importance": 70,
    "description": ""
  },
  {
    "name": "塚",
    "points": [
      [
        {"lat":35.694869201295866, "lng":139.55053400555346}
      ]
    ],
    "importance": 70,
    "description": ""
  },
  {
    "name": "築地四丁目",
    "points": [
      [
        {"lat":35.66654390787266, "lng":139.77064146523807}
      ]
    ],
    "importance": 70,
    "description": ""
  },
  {
    "name": "鶴巻町",
    "points": [
      [
        {"lat":35.709667610880715, "lng":139.72706239850794}
      ]
    ],
    "importance": 70,
    "description": ""
  },
  {
    "name": "田園調布警察前",
    "points": [
      [
        {"lat":35.589039839000186, "lng":139.677837180253}
      ]
    ],
    "importance": 70,
    "description": ""
  },
  {
    "name": "天現寺橋",
    "points": [
      [
        {"lat":35.64769185910242, "lng":139.7228534820565}
      ]
    ],
    "importance": 70,
    "description": ""
  },
  {
    "name": "天神下",
    "points": [
      [
        {"lat":35.70827098315471, "lng":139.76989279201263}
      ]
    ],
    "importance": 70,
    "description": ""
  },
  {
    "name": "天神橋",
    "points": [
      [
        {"lat":35.70144178675904, "lng":139.81938225089624}
      ]
    ],
    "importance": 70,
    "description": ""
  },
  {
    "name": "伝通院前",
    "points": [
      [
        {"lat":35.71049780977561, "lng":139.74638897426473}
      ]
    ],
    "importance": 70,
    "description": ""
  },
  {
    "name": "田道",
    "points": [
      [
        {"lat":35.63603678977409, "lng":139.7061488962205}
      ]
    ],
    "importance": 70,
    "description": ""
  },
  {
    "name": "天王洲アイル",
    "points": [
      [
        {"lat":35.62190903947635, "lng":139.75093644555704}
      ]
    ],
    "importance": 70,
    "description": ""
  },
  {
    "name": "道灌山下",
    "points": [
      [
        {"lat":35.72992703606752, "lng":139.76244660906988}
      ]
    ],
    "importance": 70,
    "description": ""
  },
  {
    "name": "東京医療センター前",
    "points": [
      [
        {"lat":35.624791503237496, "lng":139.66587285325218}
      ]
    ],
    "importance": 70,
    "description": ""
  },
  {
    "name": "東京農大前",
    "points": [
      [
        {"lat":35.639800436783176, "lng":139.63106603339853}
      ]
    ],
    "importance": 70,
    "description": ""
  },
  {
    "name": "動坂下",
    "points": [
      [
        {"lat":35.73225487436652, "lng":139.75851495705325}
      ]
    ],
    "importance": 70,
    "description": ""
  },
  {
    "name": "東大附属前",
    "points": [
      [
        {"lat":35.68644301163813, "lng":139.67246262822513}
      ]
    ],
    "importance": 70,
    "description": ""
  },
  {
    "name": "東陽町駅前",
    "points": [
      [
        {"lat":35.66957498498037, "lng":139.81643496499072}
      ]
    ],
    "importance": 70,
    "description": ""
  },
  {
    "name": "東陽四丁目",
    "points": [
      [
        {"lat":35.66969619155052, "lng":139.81964382636951}
      ]
    ],
    "importance": 70,
    "description": ""
  },
  {
    "name": "東陽六丁目",
    "points": [
      [
        {"lat":35.67576535581801, "lng":139.81600165684017}
      ]
    ],
    "importance": 70,
    "description": ""
  },
  {
    "name": "戸越三丁目",
    "points": [
      [
        {"lat":35.611583967064846, "lng":139.7152967549033}
      ]
    ],
    "importance": 70,
    "description": ""
  },
  {
    "name": "豊島市場前",
    "points": [
      [
        {"lat":35.737386728612805, "lng":139.73454024110876}
      ]
    ],
    "importance": 70,
    "description": ""
  },
  {
    "name": "等々力不動前",
    "points": [
      [
        {"lat":35.60508094708088, "lng":139.64745398043883}
      ]
    ],
    "importance": 70,
    "description": ""
  },
  {
    "name": "等々力六丁目",
    "points": [
      [
        {"lat":35.61384540470015, "lng":139.65931813172193}
      ]
    ],
    "importance": 70,
    "description": ""
  },
  {
    "name": "富ケ谷",
    "points": [
      [
        {"lat":35.66781751040184, "lng":139.68791319721885}
      ]
    ],
    "importance": 70,
    "description": ""
  },
  {
    "name": "富ヶ谷二丁目",
    "points": [
      [
        {"lat":35.6649545609034, "lng":139.68785126312076}
      ]
    ],
    "importance": 70,
    "description": ""
  },
  {
    "name": "富坂上",
    "points": [
      [
        {"lat":35.70970463411535, "lng":139.74806160510647}
      ]
    ],
    "importance": 70,
    "description": ""
  },
  {
    "name": "富坂下",
    "points": [
      [
        {"lat":35.70849499108956, "lng":139.75182470705073}
      ]
    ],
    "importance": 70,
    "description": ""
  },
  {
    "name": "富久町西",
    "points": [
      [
        {"lat":35.69132243703387, "lng":139.71461363499213}
      ]
    ],
    "importance": 70,
    "description": ""
  },
  {
    "name": "豊玉北六丁目",
    "points": [
      [
        {"lat":35.73689875443557, "lng":139.65000750865292}
      ]
    ],
    "importance": 70,
    "description": ""
  },
  {
    "name": "豊玉陸橋",
    "points": [
      [
        {"lat":35.73487472772712, "lng":139.66260810481378}
      ]
    ],
    "importance": 70,
    "description": ""
  },
  {
    "name": "（豊海町）",
    "points": [
      [
        {"lat":35.65507226638665, "lng":139.77139790895285}
      ]
    ],
    "importance": 70,
    "description": ""
  },
  {
    "name": "虎ノ門",
    "points": [
      [
        {"lat":35.670424223722854, "lng":139.74936117602226}
      ]
    ],
    "importance": 70,
    "description": ""
  },
  {
    "name": "鳥越一丁目",
    "points": [
      [
        {"lat":35.70222974560548, "lng":139.78097892186273}
      ]
    ],
    "importance": 70,
    "description": ""
  },
  {
    "name": "鳥越二丁目",
    "points": [
      [
        {"lat":35.701912884741255, "lng":139.78403223380613}
      ]
    ],
    "importance": 70,
    "description": ""
  },
  {
    "name": "都立木場公園前",
    "points": [
      [
        {"lat":35.67541546369727, "lng":139.80694206719406}
      ]
    ],
    "importance": 70,
    "description": ""
  },
  {
    "name": "都立第一商高",
    "points": [
      [
        {"lat":35.64947969505806, "lng":139.69829894197363}
      ]
    ],
    "importance": 70,
    "description": ""
  },
  {
    "name": "都立大駅前",
    "points": [
      [
        {"lat":35.618284990299344, "lng":139.6754625458174}
      ]
    ],
    "importance": 70,
    "description": ""
  },
  {
    "name": "中落合二丁目",
    "points": [
      [
        {"lat":35.71901843969446, "lng":139.6892463437376}
      ]
    ],
    "importance": 70,
    "description": ""
  },
  {
    "name": "長島町交差点",
    "points": [
      [
        {"lat":35.66767880676449, "lng":139.87341469166483}
      ]
    ],
    "importance": 70,
    "description": ""
  },
  {
    "name": "仲宿",
    "points": [
      [
        {"lat":35.752261392503065, "lng":139.70892257168381}
      ]
    ],
    "importance": 70,
    "description": ""
  },
  {
    "name": "中野五差路",
    "points": [
      [
        {"lat":35.70276132346261, "lng":139.66566381752008}
      ]
    ],
    "importance": 70,
    "description": ""
  },
  {
    "name": "中根",
    "points": [
      [
        {"lat":35.61499197789363, "lng":139.6697115751205}
      ]
    ],
    "importance": 70,
    "description": ""
  },
  {
    "name": "中野駅南口",
    "points": [
      [
        {"lat":35.70508881522533, "lng":139.66542374311706}
      ]
    ],
    "importance": 70,
    "description": ""
  },
  {
    "name": "中野坂上",
    "points": [
      [
        {"lat":35.69701787923206, "lng":139.68287389158925}
      ]
    ],
    "importance": 70,
    "description": ""
  },
  {
    "name": "中原口",
    "points": [
      [
        {"lat":35.621193580566555, "lng":139.71967839184725}
      ]
    ],
    "importance": 70,
    "description": ""
  },
  {
    "name": "中目黒駅",
    "points": [
      [
        {"lat":35.64427902216836, "lng":139.6991296630859}
      ]
    ],
    "importance": 70,
    "description": ""
  },
  {
    "name": "中目黒立体交差",
    "points": [
      [
        {"lat":35.64272471596131, "lng":139.7007423428335}
      ]
    ],
    "importance": 70,
    "description": ""
  },
  {
    "name": "鍋屋横丁",
    "points": [
      [
        {"lat":35.697527799322636, "lng":139.67093431292997}
      ]
    ],
    "importance": 70,
    "description": ""
  },
  {
    "name": "並木橋",
    "points": [
      [
        {"lat":35.65527724375404, "lng":139.70656842871333}
      ]
    ],
    "importance": 70,
    "description": ""
  },
  {
    "name": "成田東五丁目",
    "points": [
      [
        {"lat":35.701470941724565, "lng":139.6306754639137}
      ]
    ],
    "importance": 70,
    "description": ""
  },
  {
    "name": "成田東四丁目",
    "points": [
      [
        {"lat":35.6982603581226, "lng":139.6389108517256}
      ]
    ],
    "importance": 70,
    "description": ""
  },
  {
    "name": "業平一丁目",
    "points": [
      [
        {"lat":35.70882444522318, "lng":139.80853779294375}
      ]
    ],
    "importance": 70,
    "description": ""
  },
  {
    "name": "成子坂下",
    "points": [
      [
        {"lat":35.695798547269234, "lng":139.6884082650524}
      ]
    ],
    "importance": 70,
    "description": ""
  },
  {
    "name": "成子天神下",
    "points": [
      [
        {"lat":35.69517252886562, "lng":139.69049771744653}
      ]
    ],
    "importance": 70,
    "description": ""
  },
  {
    "name": "西浅草一丁目",
    "points": [
      [
        {"lat":35.71001915004202, "lng":139.78973847105658}
      ]
    ],
    "importance": 70,
    "description": ""
  },
  {
    "name": "西浅草三丁目",
    "points": [
      [
        {"lat":35.71730185245586, "lng":139.79270389800269}
      ]
    ],
    "importance": 70,
    "description": ""
  },
  {
    "name": "西麻布",
    "points": [
      [
        {"lat":35.65976487246928, "lng":139.72344754353648}
      ]
    ],
    "importance": 70,
    "description": ""
  },
  {
    "name": "西新井橋南詰",
    "points": [
      [
        {"lat":35.75651104859586, "lng":139.7898052785554}
      ]
    ],
    "importance": 70,
    "description": ""
  },
  {
    "name": "西永福",
    "points": [
      [
        {"lat":35.6800548501164, "lng":139.63634446127577}
      ]
    ],
    "importance": 70,
    "description": ""
  },
  {
    "name": "西落合一丁目",
    "points": [
      [
        {"lat":35.72265099770801, "lng":139.68407296822903}
      ]
    ],
    "importance": 70,
    "description": ""
  },
  {
    "name": "西五反田一丁目",
    "points": [
      [
        {"lat":35.62391299109088, "lng":139.72100009970433}
      ]
    ],
    "importance": 70,
    "description": ""
  },
  {
    "name": "西新宿四丁目",
    "points": [
      [
        {"lat":35.684444718694046, "lng":139.68631142893008}
      ]
    ],
    "importance": 70,
    "description": ""
  },
  {
    "name": "西新橋",
    "points": [
      [
        {"lat":35.66854656254381, "lng":139.75495400917043}
      ]
    ],
    "importance": 70,
    "description": ""
  },
  {
    "name": "西巣鴨",
    "points": [
      [
        {"lat":35.744219245387285, "lng":139.7280965547923}
      ]
    ],
    "importance": 70,
    "description": ""
  },
  {
    "name": "（西巣鴨三丁目）",
    "points": [
      [
        {"lat":35.74161306395969, "lng":139.73054796763233}
      ]
    ],
    "importance": 70,
    "description": ""
  },
  {
    "name": "西日暮里五丁目",
    "points": [
      [
        {"lat":}
      ]
    ],
    "importance": 70,
    "description": ""
  },
  {
    "name": "西嶺町",
    "points": [
      [
        {"lat":}
      ]
    ],
    "importance": 70,
    "description": ""
  },
  {
    "name": "日大病院入口",
    "points": [
      [
        {"lat":}
      ]
    ],
    "importance": 70,
    "description": ""
  },
  {
    "name": "日赤病院南",
    "points": [
      [
        {"lat":}
      ]
    ],
    "importance": 70,
    "description": ""
  },
  {
    "name": "日曹橋",
    "points": [
      [
        {"lat":}
      ]
    ],
    "importance": 70,
    "description": ""
  },
  {
    "name": "日本橋",
    "points": [
      [
        {"lat":}
      ]
    ],
    "importance": 70,
    "description": ""
  },
  {
    "name": "二枚橋",
    "points": [
      [
        {"lat":}
      ]
    ],
    "importance": 70,
    "description": ""
  },
  {
    "name": "人形町",
    "points": [
      [
        {"lat":}
      ]
    ],
    "importance": 70,
    "description": ""
  },
  {
    "name": "抜弁天",
    "points": [
      [
        {"lat":}
      ]
    ],
    "importance": 70,
    "description": ""
  },
  {
    "name": "貫井二丁目",
    "points": [
      [
        {"lat":}
      ]
    ],
    "importance": 70,
    "description": ""
  },
  {
    "name": "根岸一丁目",
    "points": [
      [
        {"lat":}
      ]
    ],
    "importance": 70,
    "description": ""
  },
  {
    "name": "根岸小前",
    "points": [
      [
        {"lat":}
      ]
    ],
    "importance": 70,
    "description": ""
  },
  {
    "name": "根津一丁目",
    "points": [
      [
        {"lat":}
      ]
    ],
    "importance": 70,
    "description": ""
  },
  {
    "name": "練馬北町陸橋",
    "points": [
      [
        {"lat":}
      ]
    ],
    "importance": 70,
    "description": ""
  },
  {
    "name": "練馬警察署南",
    "points": [
      [
        {"lat":}
      ]
    ],
    "importance": 70,
    "description": ""
  },
  {
    "name": "練馬中央陸橋",
    "points": [
      [
        {"lat":}
      ]
    ],
    "importance": 70,
    "description": ""
  },
  {
    "name": "野崎八幡前",
    "points": [
      [
        {"lat":}
      ]
    ],
    "importance": 70,
    "description": ""
  },
  {
    "name": "野沢",
    "points": [
      [
        {"lat":}
      ]
    ],
    "importance": 70,
    "description": ""
  },
  {
    "name": "白山二丁目",
    "points": [
      [
        {"lat":}
      ]
    ],
    "importance": 70,
    "description": ""
  },
  {
    "name": "馬喰町",
    "points": [
      [
        {"lat":}
      ]
    ],
    "importance": 70,
    "description": ""
  },
  {
    "name": "旗の台",
    "points": [
      [
        {"lat":}
      ]
    ],
    "importance": 70,
    "description": ""
  },
  {
    "name": "八成橋第二",
    "points": [
      [
        {"lat":}
      ]
    ],
    "importance": 70,
    "description": ""
  },
  {
    "name": "八蔵橋",
    "points": [
      [
        {"lat":}
      ]
    ],
    "importance": 70,
    "description": ""
  },
  {
    "name": "八幡宮前",
    "points": [
      [
        {"lat":}
      ]
    ],
    "importance": 70,
    "description": ""
  },
  {
    "name": "初台",
    "points": [
      [
        {"lat":}
      ]
    ],
    "importance": 70,
    "description": ""
  },
  {
    "name": "初台坂下",
    "points": [
      [
        {"lat":}
      ]
    ],
    "importance": 70,
    "description": ""
  },
  {
    "name": "八丁",
    "points": [
      [
        {"lat":}
      ]
    ],
    "importance": 70,
    "description": ""
  },
  {
    "name": "八丁堀",
    "points": [
      [
        {"lat":}
      ]
    ],
    "importance": 70,
    "description": ""
  },
  {
    "name": "初見橋",
    "points": [
      [
        {"lat":}
      ]
    ],
    "importance": 70,
    "description": ""
  },
  {
    "name": "羽根木",
    "points": [
      [
        {"lat":}
      ]
    ],
    "importance": 70,
    "description": ""
  },
  {
    "name": "馬場口",
    "points": [
      [
        {"lat":}
      ]
    ],
    "importance": 70,
    "description": ""
  },
  {
    "name": "馬場先門",
    "points": [
      [
        {"lat":}
      ]
    ],
    "importance": 70,
    "description": ""
  },
  {
    "name": "浜田山駅入口",
    "points": [
      [
        {"lat":}
      ]
    ],
    "importance": 70,
    "description": ""
  },
  {
    "name": "浜町中ノ橋",
    "points": [
      [
        {"lat":}
      ]
    ],
    "importance": 70,
    "description": ""
  },
  {
    "name": "原町三丁目",
    "points": [
      [
        {"lat":}
      ]
    ],
    "importance": 70,
    "description": ""
  },
  {
    "name": "半蔵門",
    "points": [
      [
        {"lat":}
      ]
    ],
    "importance": 70,
    "description": ""
  },
  {
    "name": "東池袋三丁目",
    "points": [
      [
        {"lat":}
      ]
    ],
    "importance": 70,
    "description": ""
  },
  {
    "name": "東池袋二丁目",
    "points": [
      [
        {"lat":}
      ]
    ],
    "importance": 70,
    "description": ""
  },
  {
    "name": "東上野三丁目",
    "points": [
      [
        {"lat":}
      ]
    ],
    "importance": 70,
    "description": ""
  },
  {
    "name": "東蒲田二丁目",
    "points": [
      [
        {"lat":}
      ]
    ],
    "importance": 70,
    "description": ""
  },
  {
    "name": "東神田",
    "points": [
      [
        {"lat":}
      ]
    ],
    "importance": 70,
    "description": ""
  },
  {
    "name": "東小岩四丁目",
    "points": [
      [
        {"lat":}
      ]
    ],
    "importance": 70,
    "description": ""
  },
  {
    "name": "東交番前",
    "points": [
      [
        {"lat":}
      ]
    ],
    "importance": 70,
    "description": ""
  },
  {
    "name": "東小松川",
    "points": [
      [
        {"lat":}
      ]
    ],
    "importance": 70,
    "description": ""
  },
  {
    "name": "東三丁目",
    "points": [
      [
        {"lat":}
      ]
    ],
    "importance": 70,
    "description": ""
  },
  {
    "name": "東砂六丁目",
    "points": [
      [
        {"lat":}
      ]
    ],
    "importance": 70,
    "description": ""
  },
  {
    "name": "東日本橋",
    "points": [
      [
        {"lat":}
      ]
    ],
    "importance": 70,
    "description": ""
  },
  {
    "name": "東向島",
    "points": [
      [
        {"lat":}
      ]
    ],
    "importance": 70,
    "description": ""
  },
  {
    "name": "久松町",
    "points": [
      [
        {"lat":}
      ]
    ],
    "importance": 70,
    "description": ""
  },
  {
    "name": "一口坂",
    "points": [
      [
        {"lat":}
      ]
    ],
    "importance": 70,
    "description": ""
  },
  {
    "name": "日比谷",
    "points": [
      [
        {"lat":}
      ]
    ],
    "importance": 70,
    "description": ""
  },
  {
    "name": "碑文谷",
    "points": [
      [
        {"lat":}
      ]
    ],
    "importance": 70,
    "description": ""
  },
  {
    "name": "平川門",
    "points": [
      [
        {"lat":}
      ]
    ],
    "importance": 70,
    "description": ""
  },
  {
    "name": "平塚橋",
    "points": [
      [
        {"lat":}
      ]
    ],
    "importance": 70,
    "description": ""
  },
  {
    "name": "広尾五丁目",
    "points": [
      [
        {"lat":}
      ]
    ],
    "importance": 70,
    "description": ""
  },
  {
    "name": "広尾橋",
    "points": [
      [
        {"lat":}
      ]
    ],
    "importance": 70,
    "description": ""
  },
  {
    "name": "深川一丁目",
    "points": [
      [
        {"lat":}
      ]
    ],
    "importance": 70,
    "description": ""
  },
  {
    "name": "深川不動前",
    "points": [
      [
        {"lat":}
      ]
    ],
    "importance": 70,
    "description": ""
  },
  {
    "name": "深沢不動",
    "points": [
      [
        {"lat":}
      ]
    ],
    "importance": 70,
    "description": ""
  },
  {
    "name": "福神橋",
    "points": [
      [
        {"lat":}
      ]
    ],
    "importance": 70,
    "description": ""
  },
  {
    "name": "札の辻",
    "points": [
      [
        {"lat":}
      ]
    ],
    "importance": 70,
    "description": ""
  },
  {
    "name": "二葉四丁目",
    "points": [
      [
        {"lat":}
      ]
    ],
    "importance": 70,
    "description": ""
  },
  {
    "name": "船堀橋東詰",
    "points": [
      [
        {"lat":}
      ]
    ],
    "importance": 70,
    "description": ""
  },
  {
    "name": "古川橋",
    "points": [
      [
        {"lat":}
      ]
    ],
    "importance": 70,
    "description": ""
  },
  {
    "name": "文京福祉センター前",
    "points": [
      [
        {"lat":}
      ]
    ],
    "importance": 70,
    "description": ""
  },
  {
    "name": "文大杉校前",
    "points": [
      [
        {"lat":}
      ]
    ],
    "importance": 70,
    "description": ""
  },
  {
    "name": "弁天町",
    "points": [
      [
        {"lat":}
      ]
    ],
    "importance": 70,
    "description": ""
  },
  {
    "name": "宝仙寺前",
    "points": [
      [
        {"lat":}
      ]
    ],
    "importance": 70,
    "description": ""
  },
  {
    "name": "方南町交差点",
    "points": [
      [
        {"lat":}
      ]
    ],
    "importance": 70,
    "description": ""
  },
  {
    "name": "蓬萊橋",
    "points": [
      [
        {"lat":}
      ]
    ],
    "importance": 70,
    "description": ""
  },
  {
    "name": "保木間四丁目",
    "points": [
      [
        {"lat":}
      ]
    ],
    "importance": 70,
    "description": ""
  },
  {
    "name": "星薬大前",
    "points": [
      [
        {"lat":}
      ]
    ],
    "importance": 70,
    "description": ""
  },
  {
    "name": "堀江団地",
    "points": [
      [
        {"lat":}
      ]
    ],
    "importance": 70,
    "description": ""
  },
  {
    "name": "堀之内橋",
    "points": [
      [
        {"lat":}
      ]
    ],
    "importance": 70,
    "description": ""
  },
  {
    "name": "堀割",
    "points": [
      [
        {"lat":}
      ]
    ],
    "importance": 70,
    "description": ""
  },
  {
    "name": "本天沼二丁目",
    "points": [
      [
        {"lat":}
      ]
    ],
    "importance": 70,
    "description": ""
  },
  {
    "name": "本郷三丁目",
    "points": [
      [
        {"lat":}
      ]
    ],
    "importance": 70,
    "description": ""
  },
  {
    "name": "本郷消防署前",
    "points": [
      [
        {"lat":}
      ]
    ],
    "importance": 70,
    "description": ""
  },
  {
    "name": "本郷二丁目",
    "points": [
      [
        {"lat":}
      ]
    ],
    "importance": 70,
    "description": ""
  },
  {
    "name": "本郷弥生",
    "points": [
      [
        {"lat":}
      ]
    ],
    "importance": 70,
    "description": ""
  },
  {
    "name": "本郷郵便局前",
    "points": [
      [
        {"lat":}
      ]
    ],
    "importance": 70,
    "description": ""
  },
  {
    "name": "本所一丁目",
    "points": [
      [
        {"lat":}
      ]
    ],
    "importance": 70,
    "description": ""
  },
  {
    "name": "本所三丁目",
    "points": [
      [
        {"lat":}
      ]
    ],
    "importance": 70,
    "description": ""
  },
  {
    "name": "本田広小路",
    "points": [
      [
        {"lat":}
      ]
    ],
    "importance": 70,
    "description": ""
  },
  {
    "name": "本町三丁目",
    "points": [
      [
        {"lat":}
      ]
    ],
    "importance": 70,
    "description": ""
  },
  {
    "name": "本町二丁目",
    "points": [
      [
        {"lat":}
      ]
    ],
    "importance": 70,
    "description": ""
  },
  {
    "name": "町屋丁目",
    "points": [
      [
        {"lat":}
      ]
    ],
    "importance": 70,
    "description": ""
  },
  {
    "name": "松が谷一丁目",
    "points": [
      [
        {"lat":}
      ]
    ],
    "importance": 70,
    "description": ""
  },
  {
    "name": "松が谷四丁目",
    "points": [
      [
        {"lat":}
      ]
    ],
    "importance": 70,
    "description": ""
  },
  {
    "name": "松原橋",
    "points": [
      [
        {"lat":}
      ]
    ],
    "importance": 70,
    "description": ""
  },
  {
    "name": "松代橋",
    "points": [
      [
        {"lat":}
      ]
    ],
    "importance": 70,
    "description": ""
  },
  {
    "name": "丸子橋",
    "points": [
      [
        {"lat":}
      ]
    ],
    "importance": 70,
    "description": ""
  },
  {
    "name": "丸山陸橋",
    "points": [
      [
        {"lat":}
      ]
    ],
    "importance": 70,
    "description": ""
  },
  {
    "name": "満願寺前",
    "points": [
      [
        {"lat":}
      ]
    ],
    "importance": 70,
    "description": ""
  },
  {
    "name": "三崎町",
    "points": [
      [
        {"lat":}
      ]
    ],
    "importance": 70,
    "description": ""
  },
  {
    "name": "三宿",
    "points": [
      [
        {"lat":}
      ]
    ],
    "importance": 70,
    "description": ""
  },
  {
    "name": "溝田橋",
    "points": [
      [
        {"lat":}
      ]
    ],
    "importance": 70,
    "description": ""
  },
  {
    "name": "三園二丁目",
    "points": [
      [
        {"lat":}
      ]
    ],
    "importance": 70,
    "description": ""
  },
  {
    "name": "三田一丁目",
    "points": [
      [
        {"lat":}
      ]
    ],
    "importance": 70,
    "description": ""
  },
  {
    "name": "三鷹市狐久保",
    "points": [
      [
        {"lat":}
      ]
    ],
    "importance": 70,
    "description": ""
  },
  {
    "name": "三鷹市新川",
    "points": [
      [
        {"lat":}
      ]
    ],
    "importance": 70,
    "description": ""
  },
  {
    "name": "三鷹市野崎",
    "points": [
      [
        {"lat":}
      ]
    ],
    "importance": 70,
    "description": ""
  },
  {
    "name": "三鷹市八幡前",
    "points": [
      [
        {"lat":}
      ]
    ],
    "importance": 70,
    "description": ""
  },
  {
    "name": "三鷹市役所前",
    "points": [
      [
        {"lat":}
      ]
    ],
    "importance": 70,
    "description": ""
  },
  {
    "name": "三田五丁目",
    "points": [
      [
        {"lat":}
      ]
    ],
    "importance": 70,
    "description": ""
  },
  {
    "name": "三田二丁目",
    "points": [
      [
        {"lat":}
      ]
    ],
    "importance": 70,
    "description": ""
  },
  {
    "name": "三田四丁目",
    "points": [
      [
        {"lat":}
      ]
    ],
    "importance": 70,
    "description": ""
  },
  {
    "name": "美土代町",
    "points": [
      [
        {"lat":}
      ]
    ],
    "importance": 70,
    "description": ""
  },
  {
    "name": "緑一丁目",
    "points": [
      [
        {"lat":}
      ]
    ],
    "importance": 70,
    "description": ""
  },
  {
    "name": "緑三丁目",
    "points": [
      [
        {"lat":}
      ]
    ],
    "importance": 70,
    "description": ""
  },
  {
    "name": "港区役所前",
    "points": [
      [
        {"lat":}
      ]
    ],
    "importance": 70,
    "description": ""
  },
  {
    "name": "南青山三丁目",
    "points": [
      [
        {"lat":}
      ]
    ],
    "importance": 70,
    "description": ""
  },
  {
    "name": "南蒲田",
    "points": [
      [
        {"lat":}
      ]
    ],
    "importance": 70,
    "description": ""
  },
  {
    "name": "南砂四丁目",
    "points": [
      [
        {"lat":}
      ]
    ],
    "importance": 70,
    "description": ""
  },
  {
    "name": "南砂六丁目",
    "points": [
      [
        {"lat":}
      ]
    ],
    "importance": 70,
    "description": ""
  },
  {
    "name": "南千束",
    "points": [
      [
        {"lat":}
      ]
    ],
    "importance": 70,
    "description": ""
  },
  {
    "name": "南台",
    "points": [
      [
        {"lat":}
      ]
    ],
    "importance": 70,
    "description": ""
  },
  {
    "name": "南台三丁目",
    "points": [
      [
        {"lat":}
      ]
    ],
    "importance": 70,
    "description": ""
  },
  {
    "name": "南長崎一丁目",
    "points": [
      [
        {"lat":}
      ]
    ],
    "importance": 70,
    "description": ""
  },
  {
    "name": "南長崎六丁目",
    "points": [
      [
        {"lat":}
      ]
    ],
    "importance": 70,
    "description": ""
  },
  {
    "name": "三原橋",
    "points": [
      [
        {"lat":}
      ]
    ],
    "importance": 70,
    "description": ""
  },
  {
    "name": "三宅坂",
    "points": [
      [
        {"lat":}
      ]
    ],
    "importance": 70,
    "description": ""
  },
  {
    "name": "宮地",
    "points": [
      [
        {"lat":}
      ]
    ],
    "importance": 70,
    "description": ""
  },
  {
    "name": "宮下",
    "points": [
      [
        {"lat":}
      ]
    ],
    "importance": 70,
    "description": ""
  },
  {
    "name": "宮下公園",
    "points": [
      [
        {"lat":}
      ]
    ],
    "importance": 70,
    "description": ""
  },
  {
    "name": "宮堀",
    "points": [
      [
        {"lat":}
      ]
    ],
    "importance": 70,
    "description": ""
  },
  {
    "name": "宮益坂上",
    "points": [
      [
        {"lat":}
      ]
    ],
    "importance": 70,
    "description": ""
  },
  {
    "name": "宮益坂下",
    "points": [
      [
        {"lat":}
      ]
    ],
    "importance": 70,
    "description": ""
  },
  {
    "name": "向丘一丁目",
    "points": [
      [
        {"lat":}
      ]
    ],
    "importance": 70,
    "description": ""
  },
  {
    "name": "向丘二丁目",
    "points": [
      [
        {"lat":}
      ]
    ],
    "importance": 70,
    "description": ""
  },
  {
    "name": "向原",
    "points": [
      [
        {"lat":}
      ]
    ],
    "importance": 70,
    "description": ""
  },
  {
    "name": "向島五丁目",
    "points": [
      [
        {"lat":}
      ]
    ],
    "importance": 70,
    "description": ""
  },
  {
    "name": "向島三丁目",
    "points": [
      [
        {"lat":}
      ]
    ],
    "importance": 70,
    "description": ""
  },
  {
    "name": "武蔵新田駅前",
    "points": [
      [
        {"lat":}
      ]
    ],
    "importance": 70,
    "description": ""
  },
  {
    "name": "武蔵野中央",
    "points": [
      [
        {"lat":}
      ]
    ],
    "importance": 70,
    "description": ""
  },
  {
    "name": "明治学院前",
    "points": [
      [
        {"lat":}
      ]
    ],
    "importance": 70,
    "description": ""
  },
  {
    "name": "夫婦坂",
    "points": [
      [
        {"lat":}
      ]
    ],
    "importance": 70,
    "description": ""
  },
  {
    "name": "夫婦橋",
    "points": [
      [
        {"lat":}
      ]
    ],
    "importance": 70,
    "description": ""
  },
  {
    "name": "目黒不動",
    "points": [
      [
        {"lat":}
      ]
    ],
    "importance": 70,
    "description": ""
  },
  {
    "name": "目黒郵便局前",
    "points": [
      [
        {"lat":}
      ]
    ],
    "importance": 70,
    "description": ""
  },
  {
    "name": "目白坂下",
    "points": [
      [
        {"lat":}
      ]
    ],
    "importance": 70,
    "description": ""
  },
  {
    "name": "目白台三丁目",
    "points": [
      [
        {"lat":}
      ]
    ],
    "importance": 70,
    "description": ""
  },
  {
    "name": "目白台二丁目",
    "points": [
      [
        {"lat":}
      ]
    ],
    "importance": 70,
    "description": ""
  },
  {
    "name": "毛利二丁目",
    "points": [
      [
        {"lat":}
      ]
    ],
    "importance": 70,
    "description": ""
  },
  {
    "name": "元浅草一丁目",
    "points": [
      [
        {"lat":}
      ]
    ],
    "importance": 70,
    "description": ""
  },
  {
    "name": "桃井四丁目",
    "points": [
      [
        {"lat":}
      ]
    ],
    "importance": 70,
    "description": ""
  },
  {
    "name": "森下駅前",
    "points": [
      [
        {"lat":}
      ]
    ],
    "importance": 70,
    "description": ""
  },
  {
    "name": "守屋図書館前",
    "points": [
      [
        {"lat":}
      ]
    ],
    "importance": 70,
    "description": ""
  },
  {
    "name": "門前仲町",
    "points": [
      [
        {"lat":}
      ]
    ],
    "importance": 70,
    "description": ""
  },
  {
    "name": "八重洲中央口前",
    "points": [
      [
        {"lat":}
      ]
    ],
    "importance": 70,
    "description": ""
  },
  {
    "name": "八雲三丁目",
    "points": [
      [
        {"lat":}
      ]
    ],
    "importance": 70,
    "description": ""
  },
  {
    "name": "ハツ山橋",
    "points": [
      [
        {"lat":}
      ]
    ],
    "importance": 70,
    "description": ""
  },
  {
    "name": "柳橋",
    "points": [
      [
        {"lat":}
      ]
    ],
    "importance": 70,
    "description": ""
  },
  {
    "name": "大和町",
    "points": [
      [
        {"lat":}
      ]
    ],
    "importance": 70,
    "description": ""
  },
  {
    "name": "大和陸橋",
    "points": [
      [
        {"lat":}
      ]
    ],
    "importance": 70,
    "description": ""
  },
  {
    "name": "弥生町三丁目",
    "points": [
      [
        {"lat":}
      ]
    ],
    "importance": 70,
    "description": ""
  },
  {
    "name": "弥生町六丁目",
    "points": [
      [
        {"lat":}
      ]
    ],
    "importance": 70,
    "description": ""
  },
  {
    "name": "鎗ケ崎",
    "points": [
      [
        {"lat":}
      ]
    ],
    "importance": 70,
    "description": ""
  },
  {
    "name": "谷原",
    "points": [
      [
        {"lat":}
      ]
    ],
    "importance": 70,
    "description": ""
  },
  {
    "name": "祐天寺二丁目",
    "points": [
      [
        {"lat":}
      ]
    ],
    "importance": 70,
    "description": ""
  },
  {
    "name": "祐天寺前",
    "points": [
      [
        {"lat":}
      ]
    ],
    "importance": 70,
    "description": ""
  },
  {
    "name": "雪が谷大塚駅前",
    "points": [
      [
        {"lat":}
      ]
    ],
    "importance": 70,
    "description": ""
  },
  {
    "name": "湯島天神入口",
    "points": [
      [
        {"lat":}
      ]
    ],
    "importance": 70,
    "description": ""
  },
  {
    "name": "夢の島",
    "points": [
      [
        {"lat":}
      ]
    ],
    "importance": 70,
    "description": ""
  },
  {
    "name": "用賀一丁目",
    "points": [
      [
        {"lat":}
      ]
    ],
    "importance": 70,
    "description": ""
  },
  {
    "name": "横川交番前",
    "points": [
      [
        {"lat":}
      ]
    ],
    "importance": 70,
    "description": ""
  },
  {
    "name": "四谷三丁目",
    "points": [
      [
        {"lat":}
      ]
    ],
    "importance": 70,
    "description": ""
  },
  {
    "name": "四谷見附",
    "points": [
      [
        {"lat":}
      ]
    ],
    "importance": 70,
    "description": ""
  },
  {
    "name": "四谷四丁目",
    "points": [
      [
        {"lat":}
      ]
    ],
    "importance": 70,
    "description": ""
  },
  {
    "name": "四之橋北詰",
    "points": [
      [
        {"lat":}
      ]
    ],
    "importance": 70,
    "description": ""
  },
  {
    "name": "代々木八幡前",
    "points": [
      [
        {"lat":}
      ]
    ],
    "importance": 70,
    "description": ""
  },
  {
    "name": "羅漢寺",
    "points": [
      [
        {"lat":}
      ]
    ],
    "importance": 70,
    "description": ""
  },
  {
    "name": "六本木",
    "points": [
      [
        {"lat":}
      ]
    ],
    "importance": 70,
    "description": ""
  },
  {
    "name": "若林",
    "points": [
      [
        {"lat":}
      ]
    ],
    "importance": 70,
    "description": ""
  },
  {
    "name": "若松町",
    "points": [
      [
        {"lat":}
      ]
    ],
    "importance": 70,
    "description": ""
  },
  {
    "name": "和田倉門",
    "points": [
      [
        {"lat":}
      ]
    ],
    "importance": 70,
    "description": ""
  },
  {
    "name": "和田三丁目",
    "points": [
      [
        {"lat":}
      ]
    ],
    "importance": 70,
    "description": ""
  }
]